stop_id,stop_name,stop_desc,stop_lon,stop_lat,zone_id,stop_url,location_type
D_1,CEM Niaga,,-17.24968655961682984,14.81784179035824245,,,0
D_2,CEM Niaga,,-17.24951320152603174,14.81767536659108053,,,0
D_3,Faye Electronic,,-17.25175125447818303,14.80865554512709181,,,0
D_4,Faye Electronic,,-17.25164030530007508,14.80855384171382738,,,0
D_5,SéNé PéTrole Lac Rose,,-17.25522419489708525,14.79909195711830705,,,0
D_6,SéNé PéTrole Lac Rose,,-17.25542297884119591,14.79899025370504084,,,0
D_7,Route Du Lac Rose,,-17.25683295797966466,14.79497296888106384,,,0
D_8,Route Du Lac Rose,,-17.257175051278832,14.79480654511390192,,,0
D_9,Quincaillerie GéNéRale,,-17.2603740859142718,14.78612014904454064,,,0
D_10,Institut Imam Al Boukhary,,-17.26057749274080422,14.78517476958941579,,,0
D_11,Ambassade Niger,,-17.46872481016603729,14.69864705099863045,,,0
D_12,Aéroport Léopold Sédar Senghor,,-17.49026505081730676,14.74812908655873755,,,0
D_13,Gouye Gui Aéroport Leopold Sedar Senghor,,-17.49125379999999907,14.74907450000000075,,,0
D_14,Loma Art,,-17.49801869338355331,14.73253511693142137,,,0
D_15,Devant Senecartours,,-17.51004846447397156,14.73953314061387765,,,0
D_16,Tally Bou Bess,,-17.49340980755932407,14.7527773698424074,,,0
D_17,En Face Point De Vente Lonase Almadies/Ngor,,-17.51118140628939912,14.74252062427871124,,,0
D_18,Poste Fann En Devant Le Restaurant Le Relais,,-17.46640502262370376,14.69608984061543211,,,0
D_19,À Mamelles De La Pharmacie Kaiser,,-17.49680635881434654,14.73316228074854628,,,0
D_20,En Face Pharmacie Aimé Césaire Fann,,-17.46652512797846057,14.69608860469929112,,,0
D_21,Près De L'Hôtel Virage,,-17.49591121911355884,14.75410663810735734,,,0
D_22,En Face Salon Daba + À Mamelles,,-17.49533325794155303,14.73299710197594869,,,0
D_23,Terminus 7218 219,,-17.49294267141641512,14.73250934455248462,,,0
D_24,Ministère De La Santé Rue Aimé Césaire Fann,,-17.4687649650731629,14.69380420776172436,,,0
D_25,En Face Ministère De La Santé Rue Aimé Césaire Fann,,-17.46882757318362422,14.69389937427865789,,,0
D_26,Route De L'Aéroport À Côté Du Vendeur De Fruits,,-17.50995149999999967,14.74574669999999976,,,0
D_27,À La Cité Assemblée Assemblée En Face Cash Point Services,,-17.49359321472111617,14.73108024478019118,,,0
D_28,Clinique Cardio De Dakar Rue Aimé Césaire Fanne Côté Ambassade Chine,,-17.47207808406150065,14.69272235517918368,,,0
D_29,Centre Médical De Fann Résidence Côté Ambassade Chine,,-17.47240830000000145,14.69250390000000017,,,0
D_30,À La Cité Assemblée Non Loin Du Brioche Dorée,,-17.49270050949238708,14.72967325813979755,,,0
D_31,Route De L'Aéroport En Face Casino Cap Vert,,-17.50241926290902938,14.75094584613377613,,,0
D_32,Ngor En Face Ingco,,-17.50961833341701279,14.74646351006886391,,,0
D_33,Rectorat,,-17.46846675440308516,14.68436138721799544,,,0
D_34,Rond-Point Ngor En Face Laverie Express,,-17.51242301988222394,14.74470884220857236,,,0
D_35,À La Cité Assemblée En Face Keur Serigne Fallou,,-17.49113262730805118,14.72941283873324103,,,0
D_36,Route De L'Aéroport En Face Apada,,-17.49319718628579778,14.75191460441117108,,,0
D_37,Ngor En Face Poste De Santé De Ngor,,-17.51292991297759016,14.74627146233601138,,,0
D_38,Claudel Corniche En Face Hôtel Terrou Bi,,-17.46550891742359468,14.67762612161738112,,,0
D_39,Rond-Point Garage Ngor,,-17.51465508794389692,14.74882330483691817,,,0
D_40,En Face Hypermarché Exclusive De Yoff,,-17.48837817088480762,14.75096649922459413,,,0
D_41,Ngor En Face Centre De Santé,,-17.51314130000000091,14.74649480000000068,,,0
D_42,Rond-Point Ngor En Face Parking,,-17.5121924475716888,14.74444781453679454,,,0
D_43,Pont Sagam,,-17.48703859643824998,14.75442894266858929,,,0
D_44,Corniche En Allant À L'Hôtel Terrou Bi,,-17.46804986971624274,14.67849298229357657,,,0
D_45,Boutique Diallo Devant La Station Shell,,-17.48799238150611046,14.72782734868378185,,,0
D_46,Almadies En Face Pharmacie Arc En Ciel,,-17.5101035722346019,14.73898828270059269,,,0
D_47,Boutique Mamelles,,-17.4980255556546993,14.73274601525362471,,,0
D_48,Boutique Diallo En Face Station Shell,,-17.48813060000000164,14.72773699999999941,,,0
D_49,En Face Ecole Saint-Exupéry De Dakar Almadies,,-17.50873146111788614,14.73542831439205081,,,0
D_50,Près Banque Cbao En Face Massalikoul Ameublement,,-17.46988925044842844,14.75508886126333685,,,0
D_51,Près Ecole Esms En Face Decathlon Yoff,,-17.46751717178024421,14.75366544105742506,,,0
D_52,Près De La Pharmacie Mota En Face Sen Eau,,-17.46649932366183222,14.75237046959964182,,,0
D_53,En Face De La Foire Près Fédération Sénégalaise De Football,,-17.46660708801516293,14.74643057556624193,,,0
D_54,En Face Pharmacie Ouest Foire,,-17.46923039126231814,14.74473366292663989,,,0
D_55,Près All Group Shop En Face Gim Uemoa,,-17.46405730000000034,14.74995140000000049,,,0
D_56,Ecole 6 Au Quartier Comico,,-17.48529294907174858,14.72736850276645093,,,0
D_57,Ouakam Grand Place,,-17.4876435999999984,14.72197609999999912,,,0
D_58,Devant Institut Chez Tati Crèche Préscolaire À Comico Ouakam,,-17.48328945184391969,14.72712274830620416,,,0
D_59,En Face Relax-Food À Comico Ouakam,,-17.48276832127154989,14.72702194625474981,,,0
D_60,À Côté De La Pharmacie Mame Seynabou Diagne À Bora Ouakam,,-17.4827364917874597,14.72567863493384088,,,0
D_61,En Face Quincaillerie Serigne Fallou Mbacké À Boutique Nar À Ouakam,,-17.48266327210964377,14.724696711475179,,,0
D_62,Dibiterie Chez Joe,,-17.48326359197754698,14.72421599954447302,,,0
D_63,Ouakam En Face Df Market,,-17.48693062915059926,14.71877114052902691,,,0
D_64,Pharmacie Mamelles,,-17.5012434423232115,14.72667720288643345,,,0
D_65,Ouakam En Face Plateau Médical,,-17.4860063337908791,14.71763002646175877,,,0
D_66,En Face Neptune Optique À Ouakam,,-17.48613930000000138,14.71749259999999992,,,0
D_67,Arrêt Bataillon Du Train,,-17.48158224774007152,14.71275619662999645,,,0
D_68,Hôpital Militaire De Ouakam,,-17.48194237517980199,14.71470009060580431,,,0
D_69,Croisement Station Total,,-17.48705423279293925,14.71940891257754735,,,0
D_70,Diaba Keur Yaye Boye,,-17.48744217985508698,14.72162612292872907,,,0
D_71,Touba Quincaillerie Générale Fall Et Frères,,-17.48816723400130968,14.72489702816219292,,,0
D_72,En Face Dibiterie Haoussa De La Route Du Marché Ouakam,,-17.48802548648562549,14.7254453961044387,,,0
D_73,En Face Bank Of Africa,,-17.50735748193942953,14.73082580062065361,,,0
D_74,Abribus En Face Laboratoire D’Analyse Bioalmadie,,-17.50881266465978214,14.73457477536187099,,,0
D_75,Des Mamelles,,-17.50125692289012491,14.72691305285039043,,,0
D_76,Terminus 221 Des Almadies,,-17.51860879999999909,14.74170398000000048,,,0
D_77,En Face Celux Fitness,,-17.47023280000000156,14.74273009999999928,,,0
D_78,Foire Juste Après La Brigade Foire,,-17.46688965778483649,14.74608899726125344,,,0
D_79,Aéroport Lss Près De L'École Al Qalam,,-17.48911497121829228,14.75046571672972995,,,0
D_80,Ecobank En Face L'Ecole Ababacar Laye,,-17.46859949999999984,14.75473359999999978,,,0
D_81,Complexe Al Mahdi,,-17.46756296527198771,14.755275475311036,,,0
D_82,Layenne À Côté De La Bambinerie Le Petit Bâteau,,-17.47118354599925638,14.75612499064777694,,,0
D_83,Layenne En Face Mairie De Yoff,,-17.47414792853444254,14.75663488148333435,,,0
D_84,Mbenguène,,-17.47338084204148601,14.75639365524454583,,,0
D_85,Yoff Layenne À Côté Du Fast Food Khèweul,,-17.4680993264458948,14.75570571948554388,,,0
D_86,Prés De L'Hôpital Le Dantec,,-17.43573940882595963,14.65837599491750076,,,0
D_87,Cathédrale De Dakar,,-17.437579856438294,14.66577381083308573,,,0
D_88,Face Bureau Regional Pam,,-17.43691335399516618,14.66167967999383315,,,0
D_89,Prés Du Bureau Regional Pam,,-17.43712308760453311,14.66191526651491017,,,0
D_90,Gare Ter En Face Dakarnave,,-17.43317131185308355,14.67623548967103453,,,0
D_91,Portail Du Dakarnave À  Côté De La Pharmacie Du Port,,-17.43292653402345138,14.67587515456831504,,,0
D_92,A Coté De La Pharmacie Nelson Mandela,,-17.43530093889762966,14.66260159805647412,,,0
D_93,Face Embassade Espagne,,-17.43630245207258156,14.66270781584093363,,,0
D_94,Fann Hock,,-17.46204745751936471,14.67906315649034887,,,0
D_95,En Face Théà¢Tre Daniel Sorano,,-17.43945838140805193,14.66651018383870486,,,0
D_96,Saprolait,,-17.43885821540425951,14.67570399518659663,,,0
D_97,Sorano,,-17.44016190855981563,14.66663242809746315,,,0
D_98,Saprolait,,-17.43884301181235585,14.67562236810885068,,,0
D_99,Gare Ter De Dakar En Face Du Portail De Dakarnave,,-17.43322999999999823,14.67570330000000034,,,0
D_100,Sandaga Pharmacie Gambetta,,-17.43743320000000097,14.67184879999999936,,,0
D_101,Face Institution Sainte Jeanne D'Arc,,-17.43609623748347559,14.6653074119653013,,,0
D_102,En Face Direction Général Des Douanes,,-17.44231475287191913,14.66744229458760529,,,0
D_103,Sandaga Pharmacie Gambetta,,-17.4373486887732092,14.67183880932921092,,,0
D_104,Quartier Contre Amiral Protet,,-17.43632453681370009,14.68196767948594861,,,0
D_105,Gare Ter En Face Dakarnave,,-17.43303143880757133,14.67578690914656647,,,0
D_106,En Face De La Direction Générale Du Budget,,-17.43700132950242221,14.66667188118292131,,,0
D_107,Polyclinique Ave Malick Sy,,-17.44507040305572332,14.67792317373176303,,,0
D_108,Salle De Vente (Dakar Plateau),,-17.43750072469223866,14.67368095836517838,,,0
D_109,Saf Industrie Route De Ruffisque,,-17.4376080999999985,14.68887070000000072,,,0
D_110,Salle De Vente (Dakar Plateau),,-17.43741653480207887,14.67436486603568824,,,0
D_111,Asecna,,-17.43928775374372009,14.66787958090102073,,,0
D_112,Cimetière Des Abattoirs Corniche Ouest,,-17.45341252330428006,14.67533997610861007,,,0
D_113,Banque Atlantique Zone Indistrielle,,-17.4373460716046047,14.69222438592805169,,,0
D_114,Avenue Ponpidou En Face Alimentation Catim,,-17.43611875921332555,14.6692510043572355,,,0
D_115,Dépôt Gaz En Face Direction Du Service De L'Intendance Des Armées (Dakar Plateau),,-17.4374690428975434,14.67849288232365979,,,0
D_116,Sénégalaise De L'Automobile Route De Rufisque,,-17.43719526406451337,14.69377016198041019,,,0
D_117,Discover,,-17.44025737106012031,14.67054914979577873,,,0
D_118,En Face Prison Civile De Reubeuss,,-17.44748885676495576,14.67211051398546395,,,0
D_119,Devant Strass Avenue Ponpidou,,-17.43571336807575634,14.66937083616298487,,,0
D_120,Intendance Près De L'Hôtel Pacha,,-17.43762603479355633,14.67822005399490948,,,0
D_121,Commissariat Bel Air,,-17.43602683917972485,14.69738104916238974,,,0
D_122,Poste Ponty,,-17.43344219237969739,14.66951517893279799,,,0
D_123,Pharmacie Bel Air,,-17.43219809192646252,14.69286596318604587,,,0
D_124,Centrale Électrique De Bel Air,,-17.43442425282613684,14.68985114533146863,,,0
D_125,Centrale Electrique De Bel Air,,-17.43474705513585477,14.68927056482036164,,,0
D_126,Cercle Mess De Officiers Colonel Emmanuel Gomis ( Port Môle 08),,-17.43249551219304294,14.67410693014117129,,,0
D_127,Armurerie Coutellerie Amadou Niang,,-17.43604055375275763,14.68745794784674885,,,0
D_128,Cbao Ponty,,-17.43302131755284279,14.66942939031692994,,,0
D_129,Bicis Place De L'Indépendance,,-17.43248300999999856,14.6683416900000001,,,0
D_130,Agence Nationale Des Affaires Maritimes,,-17.43630459535833666,14.68716820824849378,,,0
D_131,Cercle Mess Des Officiers Colonel Emmanuel Gomis Ou Embarcadère (Port Môle 08),,-17.43253010036462314,14.67398375323463888,,,0
D_132,Direction Des Douanes À  Côté De Bridge Bank,,-17.44234207431470907,14.66734317799296505,,,0
D_133,Royal Air Maroc Place De L'Indépendance,,-17.43159259531453742,14.66944709273246694,,,0
D_134,En Face Restaurant Le Taouk Avenue Assane 2 Du,,-17.4302905578067211,14.66967313883595558,,,0
D_135,El Malick,,-17.44034933494159034,14.67171895451120811,,,0
D_136,Immeuble Préférence,,-17.43864524205218913,14.66911064043216761,,,0
D_137,Devant Cité Peytavin,,-17.43893992193524767,14.6691618054919779,,,0
D_138,Prison Civile De Rebeuss,,-17.44689288621527723,14.67175435277298945,,,0
D_139,Supermarché Utile Marie Dakar Ville,,-17.43286324907219864,14.67297572230286917,,,0
D_140,Terminus Leclerc,,-17.42749293667504418,14.67210720482658992,,,0
D_141,Cbao Sise À  L'Immeuble Elhadj Elimane Ndour,,-17.45363558548328342,14.67585081393262136,,,0
D_142,En Face Marché Poissson Doumbédioune,,-17.45857747494904189,14.67824535033189726,,,0
D_143,En Face Marché Poisson Doumbédioune,,-17.45856457679583329,14.67823287312204528,,,0
D_144,Fann Hoch En Face L'Océan Atlantique,,-17.46256190000000075,14.67878490000000014,,,0
D_145,Entre La Marie De Dakar Ville,,-17.43070015803424866,14.67311029828587543,,,0
D_146,Entre La Mairie De Dakar Ville,,-17.43039608619618974,14.67301028554138931,,,0
D_147,Sen Horlogerie Serigne Fallou Mbacké,,-17.44332597781720295,14.67487069785382658,,,0
D_148,Ecobank Ave Blaise Diagne,,-17.44715519572906715,14.67847392674941354,,,0
D_149,Acep Agence Blaise Diagne,,-17.4480177251697306,14.67954928259483438,,,0
D_150,Origine Afrik Médina Rue 6,,-17.44977201882908702,14.6750242282213712,,,0
D_151,Pharmacie Lota Médina Rue 6,,-17.45281758335460864,14.6778516588434691,,,0
D_152,Ennajem Sport,,-17.45385066742439406,14.67890617935104558,,,0
D_153,Askia Assurance Médina Rue 6,,-17.45475224042422724,14.67969008042283363,,,0
D_154,Polyclinique Ave Blaise Diagne,,-17.44618384400649447,14.67779890991147163,,,0
D_155,Station Froid Auto Ave Malicle Sy,,-17.44469335397653253,14.67813937284052628,,,0
D_156,Etat Civil Dakar HôPital Principal,,-17.4350644607340115,14.66246201691518181,,,0
D_157,Pharmacie Sorano,,-17.43802747581935719,14.66593177343607124,,,0
D_158,Face CathéDrale De Dakar,,-17.43722906304356357,14.66577866362279359,,,0
D_159,Commissariat Bel Air,,-17.43594625815319432,14.69722177149288989,,,0
D_160,En Face Du Camp Militaire De Bargny,,-17.23530339422626767,14.69557794206786916,,,0
D_161,Pharmacie Maïmouna Samba En Face Quincaillerie,,-17.22682754778544023,14.69766388648405808,,,0
D_162,Jaxaay 1 En Face Pressing Moderne 2,,-17.28888669999999905,14.75627169999999921,,,0
D_163,Diamniadio En Face Station Oil Libya,,-17.17996870871298398,14.72095112175370168,,,0
D_164,Poste Courant Keur Daouda Sarr,,-17.24710266424663274,14.74121860082093605,,,0
D_165,En Face Lavage Moderne,,-17.22633821126803966,14.7745057070220529,,,0
D_166,Face Superette,,-17.2674417499651156,14.71227176086968669,,,0
D_167,Diamniadio,,-17.17978764718197837,14.72149812501680444,,,0
D_168,Station Oil Libya,,-17.17952427913946067,14.72143217509945323,,,0
D_169,Pharmacie Keur Ndiaye Lô,,-17.24444286481603683,14.74347112156862316,,,0
D_170,Station Eydon,,-17.21767330000000129,14.70017679999999949,,,0
D_171,Khal (Rufisque),,-17.26549114157624487,14.72032405339582262,,,0
D_172,Mairie (Rufisque Nord),,-17.26336238465214734,14.7219631810117253,,,0
D_173,Boulangerie Keur Ndiaye Lô,,-17.24257456518221332,14.74485159145009838,,,0
D_174,Diamniadio,,-17.16753572040449072,14.72589566676147044,,,0
D_175,En Face Arrêt Baye Niass,,-17.24135792079459151,14.74628890655406721,,,0
D_176,En Face Sedima En Allant Vers Station Shell Jaxaay,,-17.28552927521095484,14.75098270704904202,,,0
D_177,En Face Prestige Céramique Carreaux,,-17.28513978476551571,14.75201905953957393,,,0
D_178,Diamniadio,,-17.16695515296634866,14.72603604109597519,,,0
D_179,Arrêt Baye Niass Devant Meta Alu Constructions,,-17.24081999999999937,14.74640130000000049,,,0
D_180,Poste Courant Keur Daouda Sarr,,-17.24743021914970242,14.74133927637481456,,,0
D_181,Keur Ndiaye Lô Devant Nma,,-17.2445810520407683,14.74349021262531423,,,0
D_182,En Face Ferme De Noflaye,,-17.20791447718815448,14.78769628146914528,,,0
D_183,Devant La Ferme De Noflaye,,-17.20825471684314323,14.78765343881959993,,,0
D_184,Devant La Forêt De Noflaye,,-17.20573870999999855,14.78910128000000057,,,0
D_185,Rond-Point Dioutibeu (Rufisque Nord),,-17.2606682980149948,14.72406303141758954,,,0
D_186,En Face Du Campement Le Verger,,-17.20499257000000171,14.78932733999999982,,,0
D_187,En Face Vulgarisateur Près Restaurant,,-17.28223501659290307,14.73282017186584802,,,0
D_188,En Face Restaurant Little Heaven,,-17.28544550000000157,14.7350083999999999,,,0
D_189,En Face Medinatou Nour Céramique Près Menuiserie Métallique,,-17.28763570077301992,14.73674452272557467,,,0
D_190,Près De La Boucherie Côté Vendeur Poisson,,-17.28838656415429398,14.73882903372186881,,,0
D_191,Devant La Cité Cidc,,-17.19483819686648829,14.79544913168420806,,,0
D_192,Devant Sedima,,-17.19390074000000013,14.79581283999999997,,,0
D_193,Elton Cité Dabakh,,-17.23784240919448507,14.75026669832811521,,,0
D_194,En Face Cité Dabakh,,-17.23792236973758563,14.75086363992010341,,,0
D_195,Ecole Privée Alimatou Sadiya,,-17.19012864703746146,14.79852754993020802,,,0
D_196,Dépôt Sedima Ndoukhourane,,-17.16474339364674151,14.68488833085410405,,,0
D_197,Ndoukhoura Wolof En Face Dépôt De Ciment,,-17.16737446999999861,14.68123652999999962,,,0
D_198,Touba Ngayame,,-17.17006040381492937,14.65867432947282545,,,0
D_199,Ndoukhoura Wolof,,-17.16481065787034055,14.68495873121859319,,,0
D_200,Zac Mbao En Face Complexe Deff Sport,,-17.28902010983210147,14.73982399634316565,,,0
D_201,Complexe Horizon Cité Dabakh,,-17.23660535082582257,14.753296497909961,,,0
D_202,Devant Hôpital Youssou Mbargane Diop (En Face Sen AssuranceRufisque Nord),,-17.25899882986994527,14.72623436708848921,,,0
D_203,Rond-Point Bargny À Côté De Edk Bargny,,-17.22700247425353481,14.69780838259697298,,,0
D_204,Horizon En Face Quincaillerie Wa Keur Serigne Touba,,-17.23468071680299118,14.75675015799087042,,,0
D_205,Champs De Course Près Du Lycée Moderne,,-17.266630765092426,14.71702287488986016,,,0
D_206,Arrêt Bay Peulh,,-17.1895528000000013,14.7181911999999997,,,0
D_207,Poste Douane,,-17.18847481069004601,14.71932463059803808,,,0
D_208,Iacom,,-17.1835405739896423,14.72064227169287953,,,0
D_209,Horizon En Face Station Star,,-17.23454814342011687,14.75722834211684464,,,0
D_210,Hlm Rufisque En Face Le Groupe Scolaire Jupiter,,-17.28857880821607296,14.73883049647247212,,,0
D_211,Hml Rufisque En Face La Boutique Medinatou Nour Céramique,,-17.28787688775222975,14.73677765031210996,,,0
D_212,Jaxaay En Face Le Groupe Scolaire La Source Du Savoir,,-17.2874882523670621,14.75555908317088161,,,0
D_213,Sedima Près Du Rond-Point Sedima,,-17.28534507627547256,14.75092531023240561,,,0
D_214,Rond-Point Sipress Route De Sedima,,-17.28846461999999917,14.74064210999999958,,,0
D_215,Sedima En Face Prestige Céramique Carreaux Et Sanitaires,,-17.28494431342630477,14.75200598212962433,,,0
D_216,Centre De Santé En Face Nsia,,-17.18416654919502307,14.72025774252903751,,,0
D_217,Todd-Route De Yenne,,-17.1826126310863998,14.64903909335212617,,,0
D_218,Près De L'École Élémentaire El Hadj Momar Diop,,-17.26821331216174116,14.71713519225600209,,,0
D_219,Champs De Course En Face Rond-Point Lycée Moderne,,-17.2680821880462041,14.71767557900500201,,,0
D_220,En Face Star Énergie,,-17.23090112817399344,14.76237150221051664,,,0
D_221,Près Du Rond-Point Du Lycée Moderne,,-17.26782119220748513,14.71782000600969198,,,0
D_222,Sipres Zak Mbao En Face École Zac Edu,,-17.29353049999999925,14.74139349999999915,,,0
D_223,Sipress Zac Mbao En Face Fulani Électroménager,,-17.29410967372297492,14.74134393837609913,,,0
D_224,Arrêt Doudou Bass,,-17.2294300999999983,14.76530870000000029,,,0
D_225,Arrêt Boulangerie Champs De Course En Face Sm Plus Prestation De Services,,-17.26665780200593048,14.71908474856221538,,,0
D_226,En Face Doudou Bass,,-17.22944611218398947,14.76483927093791415,,,0
D_227,Rond-Point Hlm,,-17.28236998436785399,14.72825322990115637,,,0
D_228,Rond-Point Hlm Devant Le Stade Galandou Diouf,,-17.28216543858273369,14.72816424702778448,,,0
D_229,Rond-Point Sipress Route De Zac Mbao,,-17.29027342999999917,14.74005666999999953,,,0
D_230,Ndiakhirate Face S.G.F,,-17.227872842222542,14.77012427404364914,,,0
D_231,Sortie Péage Keur Ndiaye Lo (Rufisque),,-17.25552308162255244,14.73271315708946183,,,0
D_232,Sortie Péage Keur Ndiaye Lo (Rufisque),,-17.255573092503937,14.73300670973808835,,,0
D_233,Arrêt Baye Peulhdevant Station Total Énergie,,-17.1895813000000004,14.71819849999999974,,,0
D_234,Ara Sangalkam,,-17.22643574077465445,14.77457679838469318,,,0
D_235,Chérif Rufisque Nord,,-17.26167235921953491,14.72307101158652465,,,0
D_236,Croisement Ndiakhirate,,-17.22844993182984297,14.76951562859168199,,,0
D_237,Sortie Camions Devant Station Eydon,,-17.2186771920025059,14.70021069864013441,,,0
D_238,Cité Assy,,-17.23571700473096158,14.77124947990481196,,,0
D_239,Devant Afao Wawa,,-17.15779110000000074,14.81690820000000031,,,0
D_240,En Face Marché Gorom1,,-17.15506695432401685,14.81939955603498227,,,0
D_241,Mbissane,,-17.23609452549150589,14.77151890443646032,,,0
D_242,Devant Mbaye Et Frères,,-17.1747468845160256,14.80855445899293166,,,0
D_243,Près Du Croisement 'Gorom 2 Devant Boucherie Pape Abdou,,-17.17132540000000063,14.81063690000000044,,,0
D_244,En Face Boulangerie Gorom 2,,-17.17038499999999956,14.81132430000000078,,,0
D_245,Mairie De Bambilor,,-17.18786382200259411,14.80033957805269296,,,0
D_246,Devant Boutique Free Route Bambilor,,-17.18500321851966106,14.80258162965971636,,,0
D_247,En Face Arrêt Niary Baye Fall,,-17.18228566554577696,14.80417635096198303,,,0
D_248,Niary Baye Fall,,-17.18222640000000112,14.8040976999999998,,,0
D_249,En Face Station Shell,,-17.17982214252064566,14.80555311184684086,,,0
D_250,Station Shell Bambilor Dn Face Groupe Sy Energie Management,,-17.18005046904492517,14.80556666641124153,,,0
D_251,En Face Brigade De Proximité De Bambilor,,-17.17767106631820795,14.80695019570477911,,,0
D_252,Devant Xelcom Alu,,-17.17506547990152654,14.80861477113105273,,,0
D_253,Mère Thérésa,,-17.2399208545923841,14.77198531087382527,,,0
D_254,Dal Diam Mère Thérésa,,-17.23986409999999836,14.77211709999999911,,,0
D_255,En Face Hôpital Youssou Mbargane Diop,,-17.25913407518305576,14.72561593103495703,,,0
D_256,Près De La Pharmacie Rassoul (Rufisque Nord),,-17.25986748844794505,14.72233301916294579,,,0
D_257,Csfp-Btp,,-17.17636377195795561,14.71868853276657951,,,0
D_258,Diamniadio En Face Garage Modou Talibe Cheikh À Côté De Petrosen,,-17.17421795803499052,14.71674974549437387,,,0
D_259,Diamniadio En Face Csfp-Btp,,-17.17163243988039767,14.71337058640225948,,,0
D_260,Diamniadio En Face Sen Boss,,-17.16805660938916489,14.7089869210415749,,,0
D_261,Diamniadio En Face Sinotruk,,-17.1650499854481815,14.70620480113273842,,,0
D_262,Dougar,,-17.16085320568353012,14.70223556126637732,,,0
D_263,Croisement Yenne Près Du Groupe Scolaire Iba Der Thiam,,-17.15887820000000019,14.69965849999999996,,,0
D_264,Diamniadio Bounka Bambara Près De Ste Genetrans,,-17.16085102768434467,14.69424431283503552,,,0
D_265,Diamniadio Arrêt Youga Cité Fall,,-17.1607283259784289,14.69343606429142746,,,0
D_266,Croisement Ment Yenne En Face Groupe Scolaire Iba Der Thiam,,-17.15887793072305456,14.69936412168350515,,,0
D_267,Diamniadio Dougar En Face Restaurant Wa Keur Naby,,-17.16122613078615444,14.70279009743266663,,,0
D_268,Diamniadio Devant Sinotruk,,-17.1649215124964023,14.70626348144724282,,,0
D_269,Diamniadio Devant Sen Boss,,-17.16782570000000163,14.70891879999999929,,,0
D_270,Diamniadio À Côté De Csfp-Btp,,-17.17152517144551283,14.71351152963797837,,,0
D_271,Diamniadio Devant Garage Modou Talibe Cheikh À Côté De Petrosen,,-17.17425589564473043,14.71659624241329034,,,0
D_272,Diamniadio Talli Boune En Face Olam Agri Près Du Panneau Publicitaire,,-17.17640477386545683,14.71899932519291809,,,0
D_273,Station Oil Libya,,-17.1785221984410903,14.72069749657030258,,,0
D_274,A 5M Du Stade De Bargny,,-17.23765072814288146,14.70400207557055339,,,0
D_275,Route De Sococim,,-17.23799239999999955,14.70466419999999985,,,0
D_276,Rn1 Pharmacie Du Boulevard,,-17.27664721570794981,14.71739225197148038,,,0
D_277,Mbalka Thiokho,,-17.27941902430881171,14.71889196390116439,,,0
D_278,Rn1 Route De Rond-Point Zac Mbao,,-17.28730410279898777,14.72227333335066213,,,0
D_279,Serigne Assane Près Du Terminus 32,,-17.37283501146037423,14.78272795326824429,,,0
D_280,Devant Groupe Scolaire Dabakh Malick,,-17.37261209957570784,14.78333863088401756,,,0
D_281,Alioune Ndiaye,,-17.30605065169704915,14.76516941303319008,,,0
D_282,Route De Rufisque Devant Keur Serigne Fallou Face Atelier Menuisier Métallique,,-17.31948139339196757,14.74630584574741121,,,0
D_283,Devant La Mosquée Diamono,,-17.3860882066031337,14.77953103540358093,,,0
D_284,Devant Mutuelle De Santé,,-17.386243006523042,14.77911492933002613,,,0
D_285,Devant Pharmacie Malabo En Face Mosquée Keur Mbaye Fall,,-17.31505420520590377,14.7435796340140346,,,0
D_286,Texaco Près De La Station Shell,,-17.38601265564203047,14.76163139272082958,,,0
D_287,Station Keur Massar En Face École De Formation Ispm,,-17.31610354042950917,14.77434860641847258,,,0
D_288,Tivaoune Peulh Apix Rond-Point Mandoumbe En Face École Élémentaire Sakina,,-17.28756083788751852,14.81142951551607645,,,0
D_289,Tivaoune Peulh Nimzat Sarahi Rond Poind Mandoumbe Pres De L’École Élémentaire Sakina,,-17.28736363834677547,14.81150309858544212,,,0
D_290,Complexe Franco Arabe En Face Restaurant Keita,,-17.28921453056058866,14.78644298227409593,,,0
D_291,Porte Daray Sérigne Saliou Mbacké,,-17.28844482664634441,14.78627081323791437,,,0
D_292,Prêts Institut Supérieur Informatique En Face Free Money,,-17.28563741778001983,14.78639160926953267,,,0
D_293,Tally Bou Mague (Près De La Grande Mosquée De Pikine En Face Diodio Onglerie Bail Pro),,-17.3913593000000013,14.76559469999999941,,,0
D_294,Tally Bou Mague Teranga Couture Chez Pape Thiam,,-17.39149575480516674,14.7655881790329655,,,0
D_295,Ics Devant Patisen,,-17.33827107045444649,14.74972233701725344,,,0
D_296,Pharmacie 24,,-17.31497110352646729,14.77668166358171042,,,0
D_297,Route De Rufisque Devant La Senelec,,-17.31238425271798675,14.74063940972158626,,,0
D_298,Route De Rufisque À Côté De La Station Elton,,-17.31166068835812766,14.74015600551792105,,,0
D_299,En Face Mairie Wahinane Nimzat Et Guédiawayee Fm,,-17.37548983008675307,14.78682903958249462,,,0
D_300,En Face Mosquée Comico De Wakhinane,,-17.37418331876274635,14.78608067194655185,,,0
D_301,Keur Massar,,-17.31324296654316797,14.77937368249547845,,,0
D_302,Terminus Talybou Bess,,-17.38729405497903002,14.76237851400319379,,,0
D_303,Tivaoune Peulh (Arrêt Mat) En Face Quincaillerie Abdou Alima Diop,,-17.28539797696550906,14.80619321046817838,,,0
D_304,Apix Rond Poind Abdou Alima Diop Pres De La Quincaillerie Abdou Alima Diop,,-17.28545728097944334,14.80569574558501955,,,0
D_305,Tibaoune Peulh Pres De La Boulangerie Khalifa Baba Sy,,-17.28607160079437577,14.80803297745602443,,,0
D_306,Apix En Face De La Boulangerie Khalifa Babacar Sy,,-17.28640858713237805,14.80827782886022881,,,0
D_307,Cosmétique Badiaga En Face Auto École,,-17.28504577969668077,14.78630274782751997,,,0
D_308,Deevant Librairie Papeterie Darou Minam,,-17.37814464871312836,14.78680827241539397,,,0
D_309,A Côté Du Quincaillerie Sope Naby,,-17.37793412082205791,14.78677833775662975,,,0
D_310,Rond-Point Jaxay,,-17.28993189999999913,14.77051780000000036,,,0
D_311,Terminus Talybou Bess,,-17.38809488656468361,14.76235722474127776,,,0
D_312,Apix Arrêt Mbaye Ngom En Face Quincaillerie Generale Sope Naby,,-17.28692113173693556,14.80391257354818535,,,0
D_313,Apix Arrêt Mbaye Ngome Pres De La Quincaillerie Generale Sope Naby,,-17.28652417676853403,14.80418937722535944,,,0
D_314,Croisement Keur Massar À Côté Station Senoil,,-17.32494341140087002,14.74861366859473399,,,0
D_315,Terminus Hamo En Face Du Point De Service Orange,,-17.38274375433353924,14.78422040591794406,,,0
D_316,Le Chamama,,-17.2485678260335753,14.82806132061964277,,,0
D_317,Arrêt Baye Diouf,,-17.24922901412233145,14.82457056730020639,,,0
D_318,Le Chamama,,-17.24846559745127195,14.8284964653746929,,,0
D_319,Petit Mbao En Face Poste De Santé Et Pharmacie,,-17.33277727755187314,14.73547208025709843,,,0
D_320,Jaxaay Près Du Cours Privé La Clarté,,-17.28650652860552128,14.77670755873693409,,,0
D_321,Hamo 6 En Face Uvs,,-17.3836570738609808,14.78356782164147987,,,0
D_322,Station Keur Massar,,-17.31869677165647659,14.77061165022215938,,,0
D_323,En Face Camp Lgi Mbao Près De La Station Total,,-17.3484499358828792,14.74839561702035695,,,0
D_324,Étoiles Talybou Bess,,-17.38945530000000161,14.76057059999999943,,,0
D_325,Vers Croisement Keur Massar À Coté De Keur Mbaye Fall Centre,,-17.31867789731801466,14.74632639223402819,,,0
D_326,Étoiles 2 Talybou Bess 1,,-17.39024006945477652,14.75954303208355256,,,0
D_327,Marché Punde En Face Jokko Couture,,-17.39065054724246551,14.76689095886767689,,,0
D_328,Marché Punde (Pikine ),,-17.39067325123071583,14.7666215220853676,,,0
D_329,Apix Rond-Point Apix,,-17.28750219755336914,14.79938088947319308,,,0
D_330,Apix Rond-Point Apix,,-17.28737912956966483,14.79950719705673556,,,0
D_331,Hamo 4 Devant Bijouterie Gueye Et Frère,,-17.38782670000000152,14.78123000000000076,,,0
D_332,A Côté De La Bijouterie Keur Serigne Fallou Près Marché Mame Diarra,,-17.38991099062516454,14.78016866402686169,,,0
D_333,Zac Mbao Station Oryx,,-17.29709635801954093,14.72761604025972204,,,0
D_334,Printania Taly Bou Bess,,-17.39117437297137059,14.75831621896879398,,,0
D_335,Face De Ndella Couture À Coté Marché Mame Diarra,,-17.3901555744986176,14.77988427590502951,,,0
D_336,Étoiles 1 Talybou Bess,,-17.38986304564984309,14.75981314293520086,,,0
D_337,Devant Tableau Tivaoune - Cimetière Militaire,,-17.37287876057894564,14.7463103797436883,,,0
D_338,Tivaouane Peulh,,-17.29483076810501174,14.78619631929877443,,,0
D_339,Croisement Tivaoune Peulh,,-17.2941760533859501,14.78682016383357301,,,0
D_340,Tivaouane Peulh,,-17.29304398999111569,14.78921422957634135,,,0
D_341,Afia Taly Bou Bess,,-17.39144380000000112,14.7577657999999996,,,0
D_342,En Face Du Pharmacie Petit Ouzin,,-17.27359098691243133,14.78549261803907378,,,0
D_343,Terminus De La Ligne 311,,-17.24914986941345418,14.83296262579892577,,,0
D_344,Arrêt Dial Mbaye Devant Salon Event House,,-17.39310064297482938,14.77756687302556671,,,0
D_345,Arrêt Dial Mbaye Devant Salon Event House,,-17.39302633901327511,14.77737228938822156,,,0
D_346,Darou Salam,,-17.29114858836130253,14.79214815481893197,,,0
D_347,Serigne Babacar Sy,,-17.2685113028655195,14.78158715862899975,,,0
D_348,Kassia,,-17.26541082803732508,14.78064843006142937,,,0
D_349,Face Stade Allassane Djigo,,-17.39322770790897721,14.75560892264786794,,,0
D_350,Devant Stade Alassane Djigo,,-17.3934134678128629,14.75516183379397006,,,0
D_351,Keur Massar À Côté De Auchan,,-17.30866114645995069,14.76657609327319243,,,0
D_352,Près Pressing Laverie En Face Leila Fashion,,-17.29845753847229872,14.73969399667505797,,,0
D_353,En Face Mutuelle De Santé Zac Mbao Près De Leila Fashion,,-17.29829889999999892,14.73950710000000086,,,0
D_354,Sokhna Sall Près De Cms Face Tapis Rouge,,-17.29940204128115866,14.73728371635157686,,,0
D_355,Doubaless Devant Bass Narr Dibiterie,,-17.39601436446726979,14.77677918241815469,,,0
D_356,Assurance La Providence Du Rond-Point Près De Arrêt Dial Mbaye,,-17.39309793397621817,14.77636007746279923,,,0
D_357,Devant Tawfekh Ceramic,,-17.38794464464260159,14.77350752287983404,,,0
D_358,Devant Parking Notaire Sur Les Deux Voies,,-17.38705500000000015,14.77470849999999913,,,0
D_359,Près Du Plateau Médical Mandela Terminus 2 Voies Notaire,,-17.38569694980557045,14.77654006817223653,,,0
D_360,En Face Brioche Dorée Guédiawayee Devant Église Pape Jean-Paul Ii,,-17.38939666789119798,14.76900702391070297,,,0
D_361,Près De L'Annexe De L'Institut De Pédiatrie Social Ips Mouhamadou Fall En Face Maison Des Jeunes Saint Jean Paul Ii (Pikine-Guédiawaye),,-17.38939150789388322,14.76843372749351779,,,0
D_362,En Face Station Ciel Oil,,-17.3775483001625588,14.74620652453113934,,,0
D_363,Près Du Croisement Lac Rose,,-17.26290844680826098,14.78066702546157174,,,0
D_364,Quincaillerie Wa Serigne Saliou,,-17.24714994997956907,14.7754698234930224,,,0
D_365,Sonadis,,-17.27343819670355174,14.71550555245505443,,,0
D_366,Troisième Robinet,,-17.39438629930952018,14.75386314191230674,,,0
D_367,Troisième Robinet,,-17.39491519903587147,14.75339858490356626,,,0
D_368,Devant Stade Amadou Barry De Guédiawayee Pès De Clean Oil,,-17.38972819771965916,14.76966613828828123,,,0
D_369,Deuxième Robinet,,-17.3962014143703847,14.75171516038008512,,,0
D_370,Face Poste Courant,,-17.39650963821090812,14.75109641002381444,,,0
D_371,Keur Massar Devant Clinique Al Maktoum,,-17.309697394172467,14.76738987324965535,,,0
D_372,Poste Douane En Face Pharmacie Talibou Dabo,,-17.39755608566947842,14.74969323737458105,,,0
D_373,Pharmacie Birane Ly,,-17.31431572467440105,14.77013812365049716,,,0
D_374,Côté Pharmacie Talibou Dabo En Face Poste Douane,,-17.39771410000000174,14.74972409999999989,,,0
D_375,Croisement Sahm (Guédiawaye),,-17.39423751938655727,14.76996118404625591,,,0
D_376,Croisement Sahm(Guédiawaye),,-17.39400084750901243,14.76989199635090522,,,0
D_377,Keur Massar À Côté De Pharmacie Birane Ly,,-17.31387631994651599,14.76956812871596725,,,0
D_378,Terminus Talybou Bess,,-17.38815543053335944,14.76207780298540762,,,0
D_379,Rond-Point Sicap,,-17.35345349475835164,14.7479705493618436,,,0
D_380,Malika Plage Vdn,,-17.3393802421665022,14.80567663448786675,,,0
D_381,Croisement Keur Massar Devant Poste De Garde Eaux Et Forêt,,-17.32716522669831605,14.74822201463242521,,,0
D_382,Petit Mbao Devant La Foret Classée,,-17.33492348347734691,14.74993874518020043,,,0
D_383,Ics En Face Usine Satrec,,-17.34210269534000304,14.7494689787834492,,,0
D_384,Petit Mbao En Face Pépinière De Mbao,,-17.33320450406414537,14.74933704116323163,,,0
D_385,Croisement Keur Massar En Face Eaux Et Forêt,,-17.32696133956955364,14.7479670534952092,,,0
D_386,Poste De Sante Yalla Diameguene,,-17.3618707447753664,14.74685014536120953,,,0
D_387,Rond-Point Sicap En Face Passerelle,,-17.35339467953454928,14.7477521394460851,,,0
D_388,En Face Diacksao Poste De Santé El Hadji Moustapha Gueye Devant Usine Matelas Gaïnde,,-17.36697740063278061,14.74629438043039187,,,0
D_389,Diacksao Poste De Santé El Hadji Moustapha Gueye En Face Usine Matelas Gaïnde,,-17.36722353250541317,14.74646953074353561,,,0
D_390,Près Du Pharmacie Doyen Cheikh Dieng Croisement Sahm Devant Ecobank,,-17.39551750000000041,14.76904140000000076,,,0
D_391,Devant Pharmacie Ablaye Gadiaga,,-17.3889538541202775,14.76359565755799075,,,0
D_392,Devant Acep,,-17.38944370986682841,14.76366750839934738,,,0
D_393,Devant Clinique Lansar Face Diouma,,-17.39244424831437641,14.7654200295538871,,,0
D_394,Près Du Commissariat Central De Guédiawayee,,-17.38675113726011645,14.77086186945040147,,,0
D_395,Commissariat Central De Guédiawayee,,-17.38684711321045739,14.77095093157493721,,,0
D_396,Devant Crédit Mutuel Du Sénégal,,-17.3931735279370514,14.76540938507210399,,,0
D_397,Face Terminus Deux Voies Notaire Près Du Daara Nayloul Maraam,,-17.38534400598818053,14.77649516405911889,,,0
D_398,Côté Pharmacie Fatou Badji,,-17.39554299871109677,14.76617844753935671,,,0
D_399,Devant Grand Mosquée Guédiawayee,,-17.38738038566975774,14.77377499980940279,,,0
D_400,Près Du Parking Lampe Fall,,-17.38455809999999957,14.77264229999999934,,,0
D_401,Face Posye De Santé Sam Notaire Devant Babacar Sy,,-17.38369538684117188,14.77377695112463662,,,0
D_402,Devant Cours Privé Academia Limamoulaye,,-17.38156069594566944,14.77528125268398895,,,0
D_403,Devant Poste De Santé Sam Notaire,,-17.38368764684517842,14.77399099665874616,,,0
D_404,Devant Fallou Fassions Face Lycée Limamoulaye,,-17.37905603324158932,14.77590691932004141,,,0
D_405,Côté Complexe Sport Et Boulangerie,,-17.39584296655589668,14.766050714169209,,,0
D_406,Devant La Mairie De Guédiawaye,,-17.38878241195706309,14.77307358710359253,,,0
D_407,Djouti Ba,,-17.28504825533075717,14.72135074776494612,,,0
D_408,Face Pharmacie Actuel,,-17.46059499460836406,14.69288999913626803,,,0
D_409,Face Cem Mathurin Diop,,-17.45567396059912468,14.69543479619683168,,,0
D_410,Auto École Paris Dakar,,-17.45577291950171883,14.69610418124774398,,,0
D_411,Résidence El Hadji Mathiam Ndoye,,-17.45781381234832708,14.69563394048339333,,,0
D_412,Lycée D'Excellence Birago Diop Annexe 1,,-17.45862932585227512,14.69406170370918652,,,0
D_413,Paroisse Saint Dominique,,-17.45910387034813738,14.69080838892324969,,,0
D_414,Delafosse (Industrie),,-17.45979213562429777,14.68749586083474945,,,0
D_415,Ucad En Face Laboratoire D'Analyses,,-17.46025360000000148,14.69150420000000068,,,0
D_416,Avenue Assane 2 En Cote De La Galerie Nationale,,-17.42845132949656417,14.66970874204540465,,,0
D_417,Avenue Assane 2 Devant L’Ecole Hotelerie,,-17.4279258732804827,14.66978714505190773,,,0
D_418,Place De L'Indépendance Prés De La Cbao,,-17.43245592928571241,14.66943605444693866,,,0
D_419,Ecole Manguier,,-17.45783912138812255,14.68920959545062743,,,0
D_420,Eglise Saint Joseph,,-17.45561684708988537,14.6865512608919726,,,0
D_421,Avenue Cheikh Anta Diop Devant Grande Pharmacie Sahm Près De La Station Star,,-17.45430780731027554,14.68563997990117365,,,0
D_422,Face École Manguiers 1,,-17.45716913486290878,14.68852206305796493,,,0
D_423,Lycée Blaise Diagne,,-17.45313726422043743,14.69502905228498868,,,0
D_424,Boulevard Canal 4 Devant Oze Deco Et Abs,,-17.45192169999999976,14.69622060000000019,,,0
D_425,Lycée Blaise Diagne,,-17.45339992044899091,14.69526887931466064,,,0
D_426,Fasse Rue 34 Station Star,,-17.45319913076212259,14.69330992300068495,,,0
D_427,Fasse Rue 34 Station Star,,-17.45283917997416978,14.69325279980176191,,,0
D_428,Marché Fass,,-17.4515793522163527,14.69259996218212727,,,0
D_429,FassRue 22 Hôtel Wakola,,-17.45220082974867992,14.68944727305952824,,,0
D_430,Fass Rue 22 En Face Digicom,,-17.45408072898106511,14.69292774131415058,,,0
D_431,Venisia Pool Boulevard Gueule Tapée,,-17.45233932643859731,14.686947734943125,,,0
D_432,Uno,,-17.46393153482054927,14.73745513290218589,,,0
D_433,Pharmacie Darou Habibi Deux Voies Liberté 6,,-17.46134604533763124,14.73371728820902504,,,0
D_434,Camp Sekou Mballo,,-17.45954800884632618,14.73195476152256767,,,0
D_435,En Face Le Lycée Maurice Delafosse Et Devant Le Groupe 2Ij Consulting,,-17.45921048485910632,14.68369278941302269,,,0
D_436,Lycée Maurice Delafosse,,-17.45942456378207908,14.68368243505818782,,,0
D_437,Rue Gt-54,,-17.45763103000000172,14.68388196000000079,,,0
D_438,Restaurant Idee Regalo Rue Gt-54 Geule Tapé,,-17.45632664000000034,14.68161805000000086,,,0
D_439,Penc-Mi Boulevard Gueule Tapée,,-17.45505325999999968,14.68103310999999955,,,0
D_440,Guele Tapé Ecole El Hadj Alie Codou Ndoye,,-17.45599226451312447,14.68125251680189969,,,0
D_441,Face S-Tech Avenu Blaise Diagne,,-17.45255445327678245,14.68376742155528447,,,0
D_442,Dakar Apple Store Médina Rue Abdou Cogna Diop,,-17.45169957015532347,14.68607045863361193,,,0
D_443,Médina Rue 39 En Face Ideal Groupe,,-17.44805014722511416,14.69014500325965145,,,0
D_444,Medina Rue 30 Boulevard Gueule Tapée,,-17.44982571241783376,14.69106453665469125,,,0
D_445,Boutique Complexe Salam Boulevard Gueule Tapée,,-17.45081234770534095,14.68921367575508796,,,0
D_446,Fast-Food Sante Serigne Saliou.,,-17.45145351004637746,14.68861251007389157,,,0
D_447,Mor Et Marie Couture Boulevard Gueule Tapée,,-17.45046343709015346,14.69058701816977575,,,0
D_448,Ecole Moderne Jean De La Fontaine Medina Rue 22,,-17.45099513521484269,14.68665224963360316,,,0
D_449,Dibiterie Dj Koloss,,-17.41133515661803699,14.76881084670828415,,,0
D_450,Terminus 9 Liberté 6,,-17.46027189999999862,14.72749370000000013,,,0
D_451,Unité 26 En Face Cité Damel,,-17.45416632274613633,14.75186018091301499,,,0
D_452,Rte Des Niayes Police De Thiaroye,,-17.38268386625757245,14.76005299356465095,,,0
D_453,Rte Des NiayesFace Police De Thiaroye,,-17.38275712159726893,14.75986227577468668,,,0
D_454,Boutique Samsung Rond-Point Liberté 6,,-17.45795994703227194,14.72991672270900665,,,0
D_455,Terrain Niarry Tally,,-17.45384759999999957,14.71414500000000025,,,0
D_456,Terrain Niarry Tally,,-17.45388170000000017,14.71426600000000029,,,0
D_457,Unité 26 En Face Stade Léopold Sedar Senghor,,-17.45183519409442852,14.75085749750110686,,,0
D_458,Face Direction Du Matériel Des Armées,,-17.43685288936204003,14.69971626452734448,,,0
D_459,Face Universat,,-17.45319731212897807,14.71506131498725978,,,0
D_460,Mécanicien En Face Sénemeca,,-17.41621471457314385,14.73561918892271905,,,0
D_461,Mécanicien En Face Sénemeca,,-17.41615706620476089,14.73548320765422481,,,0
D_462,Diouma Liberté 6,,-17.46245884377385593,14.7268974673683779,,,0
D_463,Près De La Boutique Leur Baye Mboussobe,,-17.39896660396257388,14.75558877349647524,,,0
D_464,Près De La Boutique Baye Mboussobe,,-17.39924781551567179,14.75521349941539739,,,0
D_465,Unité 26 En Face Stade Léopold Sedar Senghor,,-17.45174787092041768,14.75066026851846246,,,0
D_466,Buscuiterie,,-17.45219140000000024,14.71604310000000027,,,0
D_467,Station Shell Pikine Texaco,,-17.38544502906151834,14.76130627773768111,,,0
D_468,Texaco En Face Tedoungal Service,,-17.38481069999999917,14.76115539999999982,,,0
D_469,Technopôle,,-17.41610609661078257,14.7461255249365788,,,0
D_470,Auto Pont Lobate Fall,,-17.4087158246109972,14.74650535587085365,,,0
D_471,Face Du Magasin De Sport Decathlon Bel Air,,-17.43661425505428397,14.70020437497169574,,,0
D_472,Unité 25 À Côté Du Groupe Scolaire Les Oiasis Plus,,-17.44953617452488714,14.75040664518252242,,,0
D_473,Centre Social De Derklé,,-17.45570771357412099,14.72831853204396957,,,0
D_474,Sgbs Case Ba,,-17.42879576794270946,14.75779893434301115,,,0
D_475,Khar Yalla,,-17.45167373384492038,14.72777594809811319,,,0
D_476,Afrique Dem Dikk,,-17.45529187198727428,14.7449595390560777,,,0
D_477,Diamalaye Mosque Seydina Issa Rouhou Laye,,-17.42482161634875482,14.77065724166144811,,,0
D_478,Institut Islamique Seydina Limamoul Mahdiyou Laye.,,-17.42820201571472438,14.77046323653538629,,,0
D_479,Institut Islamique Seydina Limamoul Mahdiyou Laye.,,-17.42769524238343237,14.77041291602066764,,,0
D_480,Bountou Pikine,,-17.40012537131944015,14.74481400284562405,,,0
D_481,Unité 25 En Face Boulangerie Grand Médine,,-17.44774430000000009,14.75006950000000039,,,0
D_482,Usine Sivop,,-17.40501642995628728,14.74656257473795051,,,0
D_483,Grand Médine À Côté Du Pharmacie Moultazam,,-17.44722180344314566,14.74986547598503783,,,0
D_484,Citée Des Eaux Prêt Brioche Dorée,,-17.44492588687021595,14.72698212767497061,,,0
D_485,Croisement Camberéne,,-17.42773893977443578,14.74439723758550969,,,0
D_486,Stade L. S. Senghor Sur Les Terrains De Football De Hlm Grand Yoff,,-17.45133140000000083,14.7443439000000005,,,0
D_487,Terrain Liberté 6,,-17.46287741137902572,14.72682018410163884,,,0
D_488,Restaurant Parcelloise P.A Unité 7,,-17.4298095355916054,14.75900496158138075,,,0
D_489,Pharmacie Baraka,,-17.42949176653660714,14.75893969759532709,,,0
D_490,Gendarmerie Du Front De Terre,,-17.44742673636423547,14.72718440767082448,,,0
D_491,Face Ymca,,-17.45106163722548231,14.71749481704846119,,,0
D_492,Coris Bank,,-17.45010368278329338,14.71842133925283846,,,0
D_493,Rue 10 Mosquée Océan,,-17.39742134648167138,14.75742404648083195,,,0
D_494,Rue 10 Mosquée Océan,,-17.39717809848826846,14.75792712603932344,,,0
D_495,Station Essence Sgf,,-17.40140156069353594,14.74558440251204239,,,0
D_496,Poste De Sante Unité 22,,-17.44636129609076391,14.75109194293866466,,,0
D_497,En Face Cours Privé Gaindé Fatma,,-17.38828789974435907,14.75831200639109575,,,0
D_498,Ana Couture Keur Mame Seydi Diamalaye Camberéne,,-17.42279844000000111,14.77118433999999958,,,0
D_499,Face Maison De La Sagesse,,-17.44986168956468831,14.7189450476502639,,,0
D_500,Pharmacie Dame Thianè,,-17.40351098266063445,14.75269533919841436,,,0
D_501,Rond-Point Patte D'Oie,,-17.43536776999999915,14.74268640999999924,,,0
D_502,Parcelle Assainies Rue 21 En Face Famina Couture,,-17.45082687114711462,14.7589566919123989,,,0
D_503,Pharmacie Dame Thianè,,-17.40375001248076003,14.75222488054875924,,,0
D_504,Owatrans,,-17.40489210000000142,14.74676889999999929,,,0
D_505,Pharmacie Serigne Mbacke Madina,,-17.39572142264337984,14.75974364146124529,,,0
D_506,Pharmacie Serigne Mbacke Madina,,-17.39532772646908754,14.76041803254623375,,,0
D_507,Pikine Sandica En Face Xalam Couture,,-17.38941799999999915,14.75664139999999946,,,0
D_508,Auto Pont Lobate Fall,,-17.40820021972005094,14.7468731911826616,,,0
D_509,Gendarmerie Du Front De Terre,,-17.44715189000000066,14.72730121000000025,,,0
D_510,Pharmacie Thiaroye,,-17.38439439703986977,14.74418307568164543,,,0
D_511,Devant La Boaboa,,-17.40559757238460037,14.74973523995174496,,,0
D_512,CEM Cheikh Anta Mbacke Guédiawayee,,-17.39654343916190271,14.76800610524762369,,,0
D_513,Ecobank Guédiawayee,,-17.39666998436078416,14.76927189836206722,,,0
D_514,Ciseau D'Or Liberte 6,,-17.46367649498889563,14.72593694482155513,,,0
D_515,Asbef,,-17.45040406368267938,14.72774467128813214,,,0
D_516,Pamecas Pikine Rue 10,,-17.39416351063939459,14.76182119439131668,,,0
D_517,Ravin,,-17.39874018552138679,14.7708281373824839,,,0
D_518,Hlm Paris Chez Baba Styliste Guédiawayee,,-17.40026105589365457,14.77218958458966647,,,0
D_519,Cité Des Eaux Devant Sen Eau,,-17.44262820000000147,14.72642289999999932,,,0
D_520,Face Italisen Import Export Guédiawayee,,-17.4075374048297391,14.7707756129317076,,,0
D_521,Rue 10 Près De Sen Eau,,-17.4062471710722555,14.74972436215862537,,,0
D_522,Pharmacie Potou Hann Bel Air,,-17.43493013522626356,14.70764645389666292,,,0
D_523,Maersk Senegal S.A Hann Bel Air,,-17.43611536999999956,14.70298413999999987,,,0
D_524,C3S Avant Gare De Ter,,-17.43082804868519275,14.72337573279274991,,,0
D_525,C3S Avant Gare De Ter,,-17.43058650000000043,14.72353670000000037,,,0
D_526,Chez Joe,,-17.44844781152410462,14.7588255892144069,,,0
D_527,Parcelle Assainies Rue 23 Près De Chez Joe,,-17.44855119154335554,14.75873177809697445,,,0
D_528,Atelier De Couture Hlm Grand Médine,,-17.44820179999999965,14.76046550000000046,,,0
D_529,Poste Thiaroye,,-17.38010029662425993,14.74504516104713403,,,0
D_530,Marché Sandica En Face Crédit Kash,,-17.39015027588048667,14.75583809141322966,,,0
D_531,Unité 24 À Côté Du Monument 26,,-17.44688716169499543,14.7544612921805971,,,0
D_532,Multusrervice P.A Unité 7,,-17.43167256213087768,14.75906818604918769,,,0
D_533,Siège De Wave Guédiawayee,,-17.40759927137142071,14.77099586681417875,,,0
D_534,Mosquée Cité Marine 2,,-17.45297152516247152,14.72811591313448609,,,0
D_535,Place Public Pikine Rue 10,,-17.39350406954745765,14.76270768344787143,,,0
D_536,Pharmacie Patte Devant Teranga Sénégal,,-17.44581431965186269,14.74143766290870339,,,0
D_537,Dépôt Intra Com,,-17.39913533089762865,14.7406572350844165,,,0
D_538,Philip Morris Sénégal,,-17.39621410000000168,14.74265899999999974,,,0
D_539,Technopôle,,-17.4154649342697887,14.74641107154716835,,,0
D_540,Marche Sandicat En Face Auchan Pikine,,-17.3915300205401202,14.75381494785501957,,,0
D_541,Pharmacie Mabousso Thiam,,-17.45534916884391308,14.7284273206424885,,,0
D_542,Restaurant Le Féerique Entrée Mariste,,-17.43798769482681621,14.72433785189270417,,,0
D_543,Devant Pharmacie Alimatou Sadiya,,-17.40873870543267898,14.74859306870541076,,,0
D_544,Restaurant Le Féerique Entrée Mariste,,-17.43782037395273576,14.72437728848607641,,,0
D_545,Poste Thiaroye,,-17.38024652663186487,14.74526000197907827,,,0
D_546,Quincaillerie Khadim Rassoul Liberte 6,,-17.46372540000000129,14.72573120000000024,,,0
D_547,Services Municipaux ( Parcelles Assainies ),,-17.44293225179968587,14.75616925732058071,,,0
D_548,Diolof Chichen 2 Voies Liberté 6,,-17.46129995682214897,14.73416856187046875,,,0
D_549,Devant Gadioty Scat Urbain,,-17.46151930183360079,14.7352428180609909,,,0
D_550,Devant Allido Face Omega Petrolieum Scat -Urbain,,-17.46103139999999954,14.73566819999999922,,,0
D_551,Près De Aisha Beauté,,-17.45986859001693503,14.73721725992692555,,,0
D_552,Près De Orange Mobile Express Scat Urbain,,-17.45944677268728995,14.73773670378039924,,,0
D_553,Face Agence Immobilière Kelela,,-17.45899869999999865,14.73813849999999981,,,0
D_554,Terrain Basketball Parcelle Unité 19,,-17.44824515296912537,14.7612212363139097,,,0
D_555,Face Ecole Elémentaire Hlm Grand Médine,,-17.44887142955572656,14.76163228139370887,,,0
D_556,Ecole Elémentaire Hlm Grand Médine,,-17.44962522852420861,14.76157747542796095,,,0
D_557,Parcelle Unité 19 En Face Cktd,,-17.44712963781665138,14.76270117302444973,,,0
D_558,Pharmacie Mariama Parcelle Unité 16,,-17.44368088666010408,14.76351412501818317,,,0
D_559,Auchan Castor,,-17.44625682230560315,14.72332958536067871,,,0
D_560,En Face Brioche Dorée,,-17.44466633618026563,14.72610634083017089,,,0
D_561,Bountou Pikine,,-17.40030815882894544,14.74468618585233948,,,0
D_562,Sgbs Pikine Tally Bou Mack,,-17.39093643230723529,14.76410280018065357,,,0
D_563,Pharmacie Khadija Ba Pikinetally Bou Mack,,-17.39107141385271404,14.76409192310600815,,,0
D_564,Pikine Icotaf En Face Boulangerie Maison Du Pain,,-17.39304879244636126,14.75200932557221023,,,0
D_565,Parc Hann Entrée Mariste,,-17.43658023100362442,14.72816044851626316,,,0
D_566,Mairie Dieuppeul-Derklé,,-17.45670353920279894,14.72727652299419887,,,0
D_567,Groupe Ozana,,-17.45672288728080801,14.72637392668585576,,,0
D_568,Pharmacie La Miséricorde,,-17.45705931999999905,14.72460326999999936,,,0
D_569,Boutique Orange Unité 10,,-17.4335707401142912,14.76003354660813827,,,0
D_570,Boutique Bazar Unité 11,,-17.43418237524227976,14.7598078429739541,,,0
D_571,En Face Dépôt Soboa,,-17.44493118240840346,14.72539512420178376,,,0
D_572,Pharmacie Yacine,,-17.4394403153551778,14.75696598527463799,,,0
D_573,Stade Municipal Des Parcelles Assainies,,-17.43727289021010662,14.75732614978279322,,,0
D_574,Fourrière,,-17.44642400000000038,14.7303291999999999,,,0
D_575,Parcelle Unité 15 En Face Adja Lingerie,,-17.44002491854125125,14.76413963955355158,,,0
D_576,Parcelle Unité 16 En Face École Les Éducateurs,,-17.43996257426566387,14.76425473070940697,,,0
D_577,Parcelle Unité 12 En Face Niambour Décor,,-17.43746726342235576,14.76345264718193739,,,0
D_578,Atelier Menuiserie Parcelle Unité 9,,-17.43733708396524662,14.76336966546162088,,,0
D_579,Centre Socio-Culturel Des Parcelles Assainies,,-17.43666560000000132,14.75958969999999937,,,0
D_580,Brioche Dorée Liberte 6,,-17.46528356010449201,14.72336134105634997,,,0
D_581,Brioche Dorée Liberte 6,,-17.46526939095095088,14.72347097221399359,,,0
D_582,Jardin Patte D'Oie,,-17.44353301089578778,14.74305179592052895,,,0
D_583,Lonase Dieuppeul,,-17.45696754133191675,14.72058216362865402,,,0
D_584,Virmon Hann Bel-Air,,-17.43380764200154331,14.71265596806126119,,,0
D_585,Gedimex Hann Bel-Air,,-17.433652605699681,14.71314110932684471,,,0
D_586,La Grillade  Route De Front De Terre,,-17.43868304647840972,14.72408358335175294,,,0
D_587,Tableau Gazelle Pikine,,-17.39723135292301137,14.75571233506521018,,,0
D_588,Hôpital Cto,,-17.44618160549435615,14.73231107125760175,,,0
D_589,Pikine Icotaf En Point Service Orange,,-17.3976272511773864,14.747731599656003,,,0
D_590,Bountou Pikine Station Ola,,-17.39965092993650941,14.74706336768037929,,,0
D_591,Pharmacie Fa Keita,,-17.45524160542479919,14.72283007678601052,,,0
D_592,Eglise Unité 10,,-17.43600743822188193,14.75943053667683458,,,0
D_593,Hoggy,,-17.44631380920454689,14.73250114568509517,,,0
D_594,Pharmacie Fa Keita,,-17.45497164233382037,14.72292798899214894,,,0
D_595,Dépôt De Contenaire Capa,,-17.43279230622074749,14.71835116449095437,,,0
D_596,Devant Boutique Amirou Diallo,,-17.45737143142543246,14.74020880440946968,,,0
D_597,Laye Café Grand Yoff Rue Gy-222,,-17.45678369927946605,14.740714643324063,,,0
D_598,Devant Mouniemoda,,-17.45526515689274305,14.74256121734466873,,,0
D_599,Brigade Nationale Des Sapeurs Pompiers Parcelle Assainies,,-17.4376856999999994,14.76092479999999973,,,0
D_600,Sénélec Dior,,-17.43945607678996268,14.76066837671255705,,,0
D_601,Ecole Dior,,-17.44703248074005586,14.75904500779180673,,,0
D_602,Lonase Pikine,,-17.3987780164649557,14.75381420407533284,,,0
D_603,Mairie De Pikine,,-17.399166088408208,14.75313979251570551,,,0
D_604,Maramy Traiteur,,-17.45297222819130667,14.72346106578758196,,,0
D_605,Dakar Technology Consulting,,-17.45300597357768169,14.72407029481501439,,,0
D_606,Centre Talibou Dabo,,-17.44609642995992971,14.73383914490865543,,,0
D_607,Centre Talibou Dabo,,-17.44617235707926284,14.73445378420542973,,,0
D_608,Beyazit Store,,-17.45264180461642667,14.7257742232118698,,,0
D_609,Marché Savanel,,-17.40035139510443329,14.74954742797870644,,,0
D_610,Marché Savanel,,-17.40070572166131768,14.74966708377041158,,,0
D_611,Pharmacie Derklé,,-17.45259396635203686,14.72687906659308332,,,0
D_612,Aprés Station Castor,,-17.44702339999999907,14.72026059999999958,,,0
D_613,Prés De La Station Castor,,-17.44682208814729307,14.72018352313236278,,,0
D_614,Cours Privés Madieye Sall,,-17.44616747325362383,14.71622300289206464,,,0
D_615,Face Cours Privés Madieye Sall,,-17.44609549999999842,14.71575239999999951,,,0
D_616,Unité 13 En Face Place Publique Unité 11,,-17.43594697773737678,14.75703449894223596,,,0
D_617,Unité 14 Face Pharmacie Cheikh Massamba Mbacké,,-17.43521160952610671,14.75370326113528208,,,0
D_618,Rond-Point Marché Jeudi,,-17.40044747775488787,14.77598643595118055,,,0
D_619,Face Imprimerie Sodic,,-17.44532169213117001,14.73668115721703309,,,0
D_620,Croisement 22 À Auchan Soprime,,-17.43507522192288306,14.75369306339020525,,,0
D_621,Imprimerie Sodic,,-17.44513328039060696,14.73671923177138865,,,0
D_622,Mosquée,,-17.44640519534883794,14.71262154240232256,,,0
D_623,Près De L'Église St Maurice,,-17.44627159999999932,14.7125584000000007,,,0
D_624,Cours Sainte Marie,,-17.43477479999999957,14.73264460000000042,,,0
D_625,Cours Sainte Marie,,-17.43455831993691518,14.7328859066402611,,,0
D_626,Diouma (Grand Yoff),,-17.44532170000000093,14.73869750000000067,,,0
D_627,Mariste En Face Bicis,,-17.43371609133541611,14.73473254703177204,,,0
D_628,Diouma (Grand Yoff),,-17.44587638191963208,14.73903224846532467,,,0
D_629,Pharmacie Baraka Seydina Limamou,,-17.42917821565492531,14.75851956021631928,,,0
D_630,Boulangerie Jaune,,-17.46623678759273801,14.71885991509806324,,,0
D_631,Salon De Coiffure Sherif Ousseynou Laye Cambéne,,-17.43016386214861058,14.76525831630791252,,,0
D_632,Salon De Coiffure Sherif Ousseynou Laye Cambéne,,-17.42997545040803331,14.76483683150777004,,,0
D_633,Keur Serigne Ablaye Cambérene 1,,-17.42991780203965746,14.76733037808640248,,,0
D_634,Serigne Mourtada,,-17.4295321906974543,14.76059678492667615,,,0
D_635,Atelier Mecanicien Unité 5,,-17.42942989999501435,14.76141801573276346,,,0
D_636,Lycée Sergent Malamine Camara,,-17.45478287907623383,14.74512406922056051,,,0
D_637,Stade Léopole Sédar Senghor,,-17.4508824748352005,14.7444849844139565,,,0
D_638,Parcelles Unité 22 Près De La Mosquée Grand Médine,,-17.4450738815494617,14.74934217364631017,,,0
D_639,Parcelles Unité 22 En Face Mosquée Grand Médine,,-17.44486069999999955,14.74939469999999986,,,0
D_640,Face Eglise Saint Paul,,-17.44720088833465255,14.73954080968823455,,,0
D_641,Mariste À Côté De Bambinerie Keur Yaye,,-17.43370765498882591,14.73631400938712765,,,0
D_642,Mariste À Côté De La Pharmacie Touba,,-17.4338988788449214,14.73656829332039919,,,0
D_643,Acep Mariste,,-17.43191071316461915,14.73831291786293995,,,0
D_644,Rond-Point Croisement Camberene,,-17.42495708893059003,14.74597639513485881,,,0
D_645,Marist,,-17.43017341212091154,14.74359502202170624,,,0
D_646,Alimentation Keur Mame Diarra Camberene Diamalaye,,-17.4223197560266243,14.7713112728178384,,,0
D_647,De La Corniche,,-17.44262226464620724,14.74262803497718011,,,0
D_648,Darou Salam Shop Camberene Diamalaye,,-17.42107642568428361,14.77240474972505346,,,0
D_649,Diamalaye Business Connexion Camberéne Diamalaye,,-17.42110682495916052,14.77250763033362979,,,0
D_650,Cours Prives Baye Gora Ndiaye Camberéne Diamalaye,,-17.41894303347638484,14.77327168090303999,,,0
D_651,Mbaye Leye,,-17.42998529281240749,14.76931268641793515,,,0
D_652,Sen Marché Camberene 1,,-17.42974345087674237,14.76898094334780254,,,0
D_653,Pharmacie Couro Mariste,,-17.43137359909822592,14.73900641243569254,,,0
D_654,Près De Dimat Médical,,-17.46523680189779881,14.72019845842420871,,,0
D_655,Mariste À Côté De L'Ecobank,,-17.43011377134040529,14.74019350684387142,,,0
D_656,Police Pa,,-17.44062982547072593,14.75037865098439838,,,0
D_657,Terrain Basket Hôpital Nabil Choucair,,-17.44302401798474378,14.74322312635077026,,,0
D_658,Siège Taxawu Sénégal,,-17.4649556091765028,14.7197016947007171,,,0
D_659,Face Brioche Doré Diamalaye,,-17.45253142390154721,14.75943860922855677,,,0
D_660,Brioche Doré Diamalaye,,-17.45247266646365247,14.75954214262370456,,,0
D_661,Cimetières De Yoff,,-17.45561941822105467,14.75950399833134696,,,0
D_662,Cite Djily Mbaye En Face Cimetières De Yoff,,-17.45585315384825975,14.75964821363454327,,,0
D_663,Face Dibiterie Le Taïf Cité Djily Mbaye,,-17.45795253488887511,14.75955953700558076,,,0
D_664,Dibiterie Le Taïf Cité Djily Mbaye,,-17.45861049999999892,14.75967789999999979,,,0
D_665,Centre Aéré Bcao Yoff,,-17.46129107202140318,14.75962387830205458,,,0
D_666,Face Pharmacie Centre Aéré,,-17.46264066077965538,14.75975874319011893,,,0
D_667,Face Marathon Yoff Apecsy,,-17.46551933341503826,14.75861816437311802,,,0
D_668,Cabinet De Soin Vétérinaire Yoff Apecsy,,-17.4664378350051166,14.75703155774162489,,,0
D_669,Cabinet De Soin Vétérinaire Yoff Apecsy,,-17.46651807720914817,14.75703924609099893,,,0
D_670,Mariste À Côté De La Cofina,,-17.42894955551063063,14.74155056675125941,,,0
D_671,En Acep,,-17.4495666531884801,14.72212264435822249,,,0
D_672,En Face Pharmacie Salam,,-17.45210576550330472,14.72253924483070087,,,0
D_673,En Face De La Cbao,,-17.4526385256764982,14.72250087376783156,,,0
D_674,Mariste En Face Edk Oil,,-17.42692764444394271,14.74186739414921377,,,0
D_675,Mariste Devant Edk Oil,,-17.42703169271858243,14.74179668592868531,,,0
D_676,Bsic Route Des Niayes,,-17.43805044015431704,14.75136184632365577,,,0
D_677,Dalifor Cité Élisabeth En Face Station Nafio,,-17.4213934010791931,14.7354471301110781,,,0
D_678,Rond-Point Jvc,,-17.46275243182195425,14.72255907116029405,,,0
D_679,Mariste Devant Auto École Rahma,,-17.42489729703066104,14.73670155430058948,,,0
D_680,Capri Market 2 Voies Liberté 6,,-17.45806226615962231,14.72952192921774639,,,0
D_681,Camp Sekou Mballo,,-17.46002677151546933,14.73199759632500161,,,0
D_682,Maristes Derrière Bonnet Rouge,,-17.42233827189754791,14.73626301658401871,,,0
D_683,Maristes Derrière Bonnet Rouge Devant Sos Infirmier,,-17.42241982324794236,14.73615423189751539,,,0
D_684,Place De L'ObéLisque,,-17.44794117774828379,14.69296174327063476,,,0
D_685,Restaurant Lcg,,-17.4570777411080158,14.69668832563217542,,,0
D_686,Terminus Poste Thiaroye,,-17.37806713709545647,14.74714189069971226,,,0
D_687,Jardin Public Baobab,,-17.4634307603908141,14.70483163710970764,,,0
D_688,Terrain Basket Baobab,,-17.46425378864611133,14.7052792130929415,,,0
D_689,Ecole Masse Massaer Niane,,-17.46505761797501677,14.70664718362986534,,,0
D_690,Sos Village D’Enfants Sacré Cœur,,-17.46550098300376419,14.70949530431012064,,,0
D_691,Ecole Masse Massaer Niane,,-17.46503535034421262,14.70642829414175168,,,0
D_692,Fastef,,-17.46590690977692262,14.7005505777224279,,,0
D_693,Lycée Thierno Saidou Nourou Tall,,-17.46705402748468927,14.69802520874316976,,,0
D_694,Fastef,,-17.46685268580850803,14.69966864514639759,,,0
D_695,Massalikoul Djinane,,-17.44710089075892512,14.70002184569044346,,,0
D_696,Terrain Colobane,,-17.44611449316116136,14.69761221225606462,,,0
D_697,Massalikoul Djinane,,-17.44721392468239785,14.70073934926881876,,,0
D_698,Bank Of Africa Hlm,,-17.44695429988941981,14.7041466049158327,,,0
D_699,Scoa,,-17.4391593745573843,14.69801880239222669,,,0
D_700,Terrain Colobane,,-17.44644299800125609,14.69764979624997103,,,0
D_701,Microcred,,-17.44690507539163349,14.70330776020077579,,,0
D_702,Scoa,,-17.43861186649055384,14.6978547997393072,,,0
D_703,Caisse De Sécurite Sociale,,-17.44742144790132699,14.6971629121917573,,,0
D_704,Pharmacie De L'Obélisque,,-17.44737906018001894,14.696412937782382,,,0
D_705,Maison Du Parti,,-17.44772964195827569,14.69840147477011172,,,0
D_706,Gouye Gui Hlm Près De Elfa Tesxtil,,-17.44700905069609931,14.7034995806391624,,,0
D_707,Bank Of Africa Hlm Baobab,,-17.44686599213670419,14.70417735453669827,,,0
D_708,Terminus Palais 2,,-17.43347015082120777,14.65275926751704105,,,0
D_709,Terminus Palais 1,,-17.43338416427676663,14.65101680877327972,,,0
D_710,Clinique Urgence Cardio En Face Keur Cheikh Bethio,,-17.48058025072525012,14.71058512253575579,,,0
D_711,Hopital Le Dantec,,-17.43537800000000004,14.65779500000000013,,,0
D_712,Ancienne Piste Devant Le Camp Militaire De Ouakam En Face Clinique Rahma,,-17.47745632933821369,14.71226438128297076,,,0
D_713,Terminus Liberté 5,,-17.45875327514637476,14.72351470354437808,,,0
D_714,Ancienne Piste Face De La Pharmacie <<De La Piste>>,,-17.47370921649538644,14.71424596701233334,,,0
D_715,Porte Camp Geremy Face Ucad,,-17.46221220982804923,14.69336724079975554,,,0
D_716,Porte Ucad Face Camp Geremy,,-17.46244877502240556,14.69332422785722692,,,0
D_717,2 Voies Liberté 5 En Face Ma Première Ecole,,-17.45747823151992861,14.72071926662476038,,,0
D_718,Camps Sapeur Pompier De Dieuppeul,,-17.45668152987427035,14.71834265083075266,,,0
D_719,Vdn Devant Sotracom Sa En Face Immeuble Expresso,,-17.47145139186001117,14.71927591720775652,,,0
D_720,Commissariat Dieuppeul,,-17.45616379065025825,14.71819762471910487,,,0
D_721,Vdn Devant Forever En Face Terrain Sacré Cœur,,-17.47078648643626053,14.72229594326449309,,,0
D_722,Maison De Huissier De Justice Fatma Haris Diop,,-17.44490964378404385,14.68407853480505487,,,0
D_723,Ecole Ecosoft Centenaire,,-17.44562662834546529,14.6862394977651789,,,0
D_724,Niary Tally Près Boutique Expresso En Face Sde,,-17.45229698405494645,14.70551705708416534,,,0
D_725,Face Diouma Niarry Tally,,-17.45350013968624836,14.70900567006918536,,,0
D_726,Diouma Niary Tally,,-17.45273639999999915,14.70812699999999928,,,0
D_727,Mermoz Route De Ouakam Avenue Cheikh Anta Diop Pres Du Djolof Chicken,,-17.48069309268441884,14.70823343020912333,,,0
D_728,Mermoz Rond-Point Cheikh Bethio Avenue Cheikh Anta Diop,,-17.48140821953542456,14.70890151497285814,,,0
D_729,Niary Tally,,-17.45390208477465421,14.71157155339264833,,,0
D_730,Jardin Jet D’Eau,,-17.45474354425434171,14.71395625239536997,,,0
D_731,Vdn Devant Fitness Ramses Spa En Face Auto Pont Saint Lazare,,-17.47123778622709622,14.72571302738408328,,,0
D_732,Niary Tally 1Er Arrêt Rue 11 Diable,,-17.45415932963123851,14.71097284998220367,,,0
D_733,Station Shell Avenu Blaise Diagne,,-17.45240628248969017,14.68338747629874597,,,0
D_734,Banque Of Africa Centenaire,,-17.44524821982694007,14.68571290549060038,,,0
D_735,Mermoz Route De Ouakam Depot Ddd Pres Du Siege Apr,,-17.47859500080967976,14.70598649820669834,,,0
D_736,Centre Commercial Centenaire,,-17.44609797930714024,14.68815962226483585,,,0
D_737,Stade Marius Ndiaye,,-17.45907763832816784,14.71045009793999903,,,0
D_738,Face Bbanque Islamique,,-17.4466423564741504,14.68920316111424995,,,0
D_739,Vdn Devant Siege Ensup Dakar En Face Sodhaco,,-17.47335774539548936,14.73577491864013034,,,0
D_740,Mermoz Route De Oukam Pres De L’Uvs En Face Du Siege D’Apr,,-17.47866771350855331,14.70570517514314268,,,0
D_741,Avenue Bourgiba En Face De L'Immeuble Serigne Saliou Mbacké,,-17.45610506854326971,14.71175015147209919,,,0
D_742,Face College Sacré Coeur,,-17.46239219538217569,14.71274541952993609,,,0
D_743,Vdn Devant Caisse De Sécurité Sociale,,-17.47174485719373038,14.7401920784656344,,,0
D_744,En Face Stade Demba Diop Avenue Bourgiba,,-17.45742030247532384,14.71011109153627494,,,0
D_745,Rond-Point Cheikh Béthio Face Clinique Urgences,,-17.48079926369693382,14.71020189539144063,,,0
D_746,Université Du Sahel En Face Du Mur Camp Batrain,,-17.47766140512079502,14.71192930086771611,,,0
D_747,Ancienne Piste Devant Belel Boutique,,-17.47337273292979987,14.71418434362618477,,,0
D_748,Vdn Devant Mondial House,,-17.47106513261903871,14.71804540029234687,,,0
D_749,Face Anaser Senegal,,-17.46883615722814298,14.70116334946781578,,,0
D_750,Face Du Jardin Sacré Coeur,,-17.4609624569707087,14.71435185250964395,,,0
D_751,Av Bourgiba En Face Chez Joe Près Du Cabinet Médical Bourgiba,,-17.45887535574812688,14.70863118966220462,,,0
D_752,Jardin Sacré Coeur,,-17.46024149437088724,14.71536225219662875,,,0
D_753,Face Jardin Sacré Coeur,,-17.4597420066343112,14.71565093632963794,,,0
D_754,Mermoz Deuxième Porte Pres De L’Immeuble Pectra Sn,,-17.47330994838980445,14.70242600791180543,,,0
D_755,Dakar Intérim Sécurité,,-17.46169668743080905,14.70240005784391535,,,0
D_756,En Face Estg,,-17.45831054787704062,14.71746551356094379,,,0
D_757,Lycée Franco-Arabe Allées T.S.Nourou Sall,,-17.45926729925065857,14.70019644164815276,,,0
D_758,Face World Vision Prêt De Bcis,,-17.45802963047065859,14.69836127260985492,,,0
D_759,Vdn Près De Esup Dakar,,-17.47120921367940483,14.72245818473453483,,,0
D_760,Av Bourgiba À Côté De Ong Jamra,,-17.45933192944994872,14.70794762504098685,,,0
D_761,Jardin D’Enfant Dieuppeul,,-17.45471120157909795,14.71882130073712247,,,0
D_762,Ipg En Face First Class,,-17.46096000000000004,14.72034239999999983,,,0
D_763,Mermoz Deuxième Porte Route De Oukam Pres Du Seasapay,,-17.47327487361854992,14.70266610172454413,,,0
D_764,Hopital Pmi,,-17.45066067995594139,14.68202339060960959,,,0
D_765,Face Ecole Ibrahima Koité Dieuppeul,,-17.45333027999999942,14.72088098000000045,,,0
D_766,Sacré Cœur En Face Iseg,,-17.4626207694531459,14.71831519412893741,,,0
D_767,Dieuppeul Prés Du Cem Socé Diop,,-17.45338024662687815,14.72162486535940573,,,0
D_768,Cabinet Avocat Mbaye Jack Ndiaye,,-17.46337416049981073,14.71765156252355489,,,0
D_769,Vdn Près De L'Immeuble Wave,,-17.47236610579370719,14.72939277511001777,,,0
D_770,Mermoz Route De Oukam Avenue Cheikh Anta Diop Pres De L’Ecobank En Face Auchan Mermoz,,-17.46995086452722745,14.69990239719345304,,,0
D_771,Face Eglise Temple Évangélique,,-17.44767162408383143,14.69226747981910641,,,0
D_772,Sacré Cœur Face Terrain Sacré Cœur Bem,,-17.46531164269097758,14.71556032065317865,,,0
D_773,Av Bourgiba En Face Ecobank Et Résidence Serigne Abdou Karim Mbacké Falilou,,-17.46132823845940507,14.70586559798559101,,,0
D_774,Av Bourgiba En Face Saveurs D'Asie,,-17.46157763817068087,14.70539613583689587,,,0
D_775,Vdn En Face Majorel,,-17.47308035568110895,14.7348310406134626,,,0
D_776,Mermoz Arrêt Station Elton Pres De L’Ecobank,,-17.46878676093995608,14.69992932503529204,,,0
D_777,Vdn Devant Ifaa,,-17.47140526963565677,14.73996388627320542,,,0
D_778,Av Seydou Nourou Tall,,-17.46190109999999862,14.70314259999999962,,,0
D_779,Deux Voies Liberté 6 Devant La Pharmacie Sud Foire,,-17.46862262280363254,14.73949712877123908,,,0
D_780,Mermoz Vdn Grande Mosquée Mermoz ( Arrêt Dioumaji ),,-17.47024722000000097,14.70473125000000003,,,0
D_781,Siège Pds,,-17.47125013956094008,14.70906189341879511,,,0
D_782,Deux Voies Liberté 6 Face L'Ipd Thomas Sankara,,-17.46557876382410868,14.73780808952984955,,,0
D_783,Deux Voies Liberté 6 Devant Mandat Auto,,-17.46367736993063247,14.7362816610213887,,,0
D_784,Rue 10 Djakka Face Diacka Peulh Fouta,,-17.45928966618164324,14.70613807198503054,,,0
D_785,Sacré Cœur Devant La Poste Finance Rond-Point Boulangerie Jaune,,-17.46726041682570241,14.71765897734548645,,,0
D_786,Rue 11 Angle Blaise Diagne,,-17.44965364493944548,14.6808280658778223,,,0
D_787,Vdn Devant Nsia,,-17.47161216381066851,14.71383002677363372,,,0
D_788,Pharmacie El Mansour En Face De La Mosquée,,-17.45622894824021643,14.702559750966115,,,0
D_789,Grand Dakar Dibiterie Haouss Face Travaux Brt,,-17.45699468933613474,14.70364439409328305,,,0
D_790,Vdn Avant Pont Deux Voix 6 En Face Clinique Nour,,-17.4702807192848546,14.71583019435472472,,,0
D_791,Sacré Cœur Rond-Point Boulangerie Jaune Devant Pharmacie Mame Oumy Gueye,,-17.46731433973027237,14.71740500282723296,,,0
D_792,Rue 37 Angle 18,,-17.45196012409398278,14.68438656767383499,,,0
D_793,Rue 37 Angle 22,,-17.45103251167516589,14.68610204324237145,,,0
D_794,En Face Lonase,,-17.45696017505193609,14.72061147731537467,,,0
D_795,Shupa Grossiste,,-17.46315382916549552,14.73617054132182957,,,0
D_796,LycéE Franco-Arabe Allées T.S.Nourou Sall,,-17.45956522910069353,14.70004159985619907,,,0
D_797,Bicis Allées T.S.Nourou Sall,,-17.45773837069188872,14.69848672410934398,,,0
D_798,Groupe Afi Univrsité De L'Entreprise Face,,-17.45493575496826821,14.69890795387418336,,,0
D_799,Ecole EléMentaire Liberté 1,,-17.45824506625303485,14.71738450597072401,,,0
D_800,Pres Banque Atlantique 2 Voies Liberté 6,,-17.47053979714816663,14.715926909223775,,,0
D_801,CimitiéRe Saint Lazare Vdn,,-17.47163910144403332,14.72548861196933245,,,0
D_802,Sicas,,-17.44710882141165698,14.67597481123570446,,,0
D_803,Credit Mutuel Du SéNéGal,,-17.44695324199624409,14.67626829284979273,,,0
D_804,Mairie De Fann Piont E Amitié,,-17.45619617101845833,14.69783485082128927,,,0
D_805,Terminus Parcelles Assaines,,-17.43868901293814844,14.76016516270571621,,,0
D_806,Zac Mbao Station Oryx,,-17.29665070639401492,14.72758845317866694,,,0
D_807,Pinc Mi,,-17.45510775275110404,14.68150506269868139,,,0
D_808,CollèGe De YéNe,,-17.17405159386105851,14.64046340704426541,,,0
D_809,Poste De Santé De YéNe,,-17.17388124998426235,14.64012494690139654,,,0
D_810,LycéE De YéNe,,-17.16144025260898331,14.6284974600500064,,,0
D_811,Poste De Santé De Nianghal,,-17.16103168624024278,14.62737603312816681,,,0
D_812,Mosquée De Nianghal,,-17.15944744930024513,14.62141381827790809,,,0
D_813,Franco-Arabe De YéNe,,-17.15929736369540137,14.62099024475844544,,,0
D_814,Terminus,,-17.15714196764807653,14.61725469435346092,,,0
D_815,Stade De Grand Mbao,,-17.31957546706760454,14.73101589547498236,,,0
D_816,Stade De Grand Mbao,,-17.31924910224193681,14.73094057292599324,,,0
D_817,Mosquée Cité Sipres 5,,-17.31124574663074256,14.72807470993777379,,,0
D_818,Mosquée Cité Sipres 5,,-17.31074507331864254,14.72780211024402597,,,0
D_819,Rufisac,,-17.30337775824836655,14.72939107471320419,,,0
D_820,Rufisac,,-17.30193136868007642,14.73024473481364716,,,0
D_821,Tapis Rouge,,-17.29949846725237705,14.73743794371936566,,,0
D_822,HôTel De Ville MéDina,,-17.44397457264916795,14.67566526499543045,,,0
D_823,Ecole Papa Gueye Fall,,-17.4411352572244347,14.67751851464555024,,,0
D_824,Grande Mosquée De Dakar,,-17.44271179305534858,14.67897238450028219,,,0
D_825,Face Cesag,,-17.44396065512082572,14.6813231570363687,,,0
D_826,Bhs Bd Centanaire,,-17.44412165840013529,14.68211106154849865,,,0
D_827,Face Effage,,-17.43247625471797946,14.69226585599721524,,,0
D_828,Grand Moulin,,-17.43199657883812037,14.69452723504303471,,,0
D_829,Grand Moulin,,-17.43207016343503568,14.69474084605453612,,,0
D_830,Maersk Senegal S.A Hann Bel Air,,-17.43591262292635236,14.70326096680675398,,,0
D_831,Saga Socopao,,-17.43480007709051449,14.70765991217587931,,,0
D_832,MinistèRe De L'Environnement,,-17.43718034559525876,14.72275563619886007,,,0
D_833,Parc Hann,,-17.43659433918369217,14.72212416721168893,,,0
D_834,MéDina Rue 15X22,,-17.44673365847281232,14.68266781113049113,,,0
D_835,SièGe Collectivites Des LéBou,,-17.44707839626080315,14.68291105176513867,,,0
D_836,Pharmacie Fatim Zahra,,-17.44869407831848207,14.68456177378944894,,,0
D_837,Pharmacie Tamsir Oumar Sall,,-17.44893711227303257,14.68469627879405515,,,0
D_838,Cabinet Medical Zenith,,-17.45007939484442616,14.68730295896878246,,,0
D_839,Jersey Unisexe Ambassade De Mauritanie,,-17.44738956311448064,14.68993035083559029,,,0
D_840,Hlm Fass,,-17.45061042160690334,14.69587402989218283,,,0
D_841,LycéE John F.Kennedy,,-17.45020012727730574,14.69562554903347618,,,0
D_842,Face Supermarché Score Sahm,,-17.45258533683828617,14.68601203483228979,,,0
D_843,Seydi Djamil,,-17.45232236596973863,14.68939289777792467,,,0
D_844,Immeuble Barkham,,-17.45391922263567963,14.69284263749915809,,,0
D_845,Rectorat,,-17.46882079238570995,14.68457769585725181,,,0
D_846,Face Ambassade Mali,,-17.47074080669482044,14.68759559017222927,,,0
D_847,Ecole Nationale D'Administration,,-17.45301515001930426,14.69891244046247358,,,0
D_848,CEM Blaise Diagne,,-17.45299683898638321,14.69874550550726333,,,0
D_849,Kenyas Bvld Dial Diop,,-17.45442433386122616,14.70043271060646894,,,0
D_850,Face Sen Systems,,-17.4544289922959841,14.70059848892463883,,,0
D_851,Thiossane Dlc Rue 10,,-17.45721690996481001,14.70364972494243538,,,0
D_852,Bar Coq Gaulois,,-17.45906276741435903,14.70605662690199011,,,0
D_853,Hopital Fann,,-17.464996465576899,14.6954624791379036,,,0
D_854,Sonatel Fann,,-17.46521068605792237,14.69591705749196286,,,0
D_855,Eglise Sainte ThéRéSe,,-17.4530894513786734,14.70113514634728702,,,0
D_856,Eglise Sainte ThéRéSe,,-17.45302688174772854,14.70140372294598485,,,0
D_857,Maison Du Drap,,-17.44665390997312926,14.70645847912293291,,,0
D_858,Arc En Ciel Pressing,,-17.44680145103976088,14.70672473758267707,,,0
D_859,Police Hlmll,,-17.44647182851477396,14.70943108860528881,,,0
D_860,Police Hlmll,,-17.44663957743099658,14.70953077095037642,,,0
D_861,Institut SupéRieur De Technologie,,-17.455718753447659,14.71686099861281072,,,0
D_862,Direction Passport,,-17.45595497780463745,14.71650082238812907,,,0
D_863,Bichette Lingerie,,-17.4537145541179548,14.71907043596417708,,,0
D_864,Gendarmerie Front De Terre,,-17.44637453270999572,14.72923466778431667,,,0
D_865,Ecole Saint Pierre SacréE Cå“Ur,,-17.46409796356820365,14.71086195630816285,,,0
D_866,Stade Marius Ndiaye,,-17.45978862612282256,14.71110374886617578,,,0
D_867,Terrain Sacre Coeur,,-17.46544781174236505,14.71523468109349331,,,0
D_868,Bimao Sur La Vdn,,-17.47190137574795443,14.71178296673882357,,,0
D_869,SièGe Pds,,-17.4708584480757203,14.70905756420778943,,,0
D_870,Yum Yum,,-17.48700096589556452,14.71851661106373221,,,0
D_871,Gendarmerie Ouakam,,-17.48309050968362399,14.71562840451839449,,,0
D_872,LycéE Franà§Ais Jean Mermoz,,-17.48613845827775037,14.71951195085983599,,,0
D_873,Face Eogen,,-17.48582048003387257,14.72103560002550005,,,0
D_874,Pharmacie Cite Avion,,-17.48428449152657649,14.72254593392917066,,,0
D_875,Cité Biagui,,-17.48673502199389418,14.75416393715969221,,,0
D_876,Tonghor,,-17.4825016045575623,14.75912007479997179,,,0
D_877,Tonghor,,-17.48230259216979832,14.75890615356803615,,,0
D_878,Pharmacie Mame Ndiaré,,-17.47783021969316763,14.75698981029313295,,,0
D_879,Terrain Foot Ndeungagne,,-17.47739798065744665,14.75623616328302923,,,0
D_880,Mairie De Yoff,,-17.47422211162188432,14.75567800272782293,,,0
D_881,Soleil Eau Vie Sarl,,-17.4746265159832106,14.75535147612017717,,,0
D_882,Auchan Yoff,,-17.46714999003087954,14.75361383024520734,,,0
D_883,Face Jardin Nord Foire,,-17.46505757579402029,14.75071448848873246,,,0
D_884,Pharmacie Maty,,-17.45657353237205456,14.73088667582922717,,,0
D_885,Khar Yalla,,-17.45662319705750321,14.73110206711413461,,,0
D_886,Sen Carreaux 2000,,-17.45410940910374009,14.7387542606677453,,,0
D_887,Mosquée Arafat 5,,-17.45327762305675279,14.73964123758195832,,,0
D_888,ColléGe Cardinal Hyancinthe Thiandoum,,-17.45171389361313885,14.74133739674809895,,,0
D_889,Chez Tonton Aliou,,-17.4505107226703764,14.74204511603354284,,,0
D_890,Complexe Frontiere,,-17.44333151599735743,14.73843893139172678,,,0
D_891,Face Complexe Frontiere,,-17.44313732575435338,14.73845329829002004,,,0
D_892,De La Corniche,,-17.44281930986342743,14.74256199537408207,,,0
D_893,Mosquée Nord Foire,,-17.45785326363087364,14.75023676671608897,,,0
D_894,Mosquée Nord Foire,,-17.45750900279978168,14.75027698707026502,,,0
D_895,Pharmacie Keur Damel,,-17.45605655775977283,14.75139020425493008,,,0
D_896,Pharmacie Keur Damel,,-17.45598117999051624,14.75131505458733372,,,0
D_897,Boulangerie Dedi,,-17.45450897345821062,14.75191426455818799,,,0
D_898,Pharmacie Niuma,,-17.44934254108531846,14.75023980323846118,,,0
D_899,Sos Village,,-17.46532930988053423,14.70937933002373654,,,0
D_900,Eglise Saint Pierre Des Baobabs,,-17.46432670196181647,14.71081349955285766,,,0
D_901,College Sacré Coeur,,-17.4622275260278883,14.7130347314539911,,,0
D_902,Bem,,-17.46638867820948704,14.71632817231225587,,,0
D_903,Bem,,-17.46670546165935534,14.71591674869215538,,,0
D_904,SièGe Taxawu SéNéGal,,-17.46508958358761276,14.71999359500805049,,,0
D_905,Restaurant Le Convivial,,-17.46271603086956858,14.72232204942635647,,,0
D_906,Jvc,,-17.46397398558579894,14.72225049374079298,,,0
D_907,Jvc,,-17.4639011899912262,14.72231892418085231,,,0
D_908,Face Pharmaci Matiba,,-17.46106137170956174,14.72435700895237254,,,0
D_909,Tentation,,-17.46051925033111729,14.72461458026831593,,,0
D_910,Rond-Point 6,,-17.45807037680562956,14.72768842942783429,,,0
D_911,Rond-Point 6,,-17.45830332743803837,14.72712838523509404,,,0
D_912,Office National Dela Formation Professionnelle,,-17.46862986518504357,14.73984779475948947,,,0
D_913,Samu Minicipal,,-17.46561125217135668,14.73814646981751153,,,0
D_914,Salamtransport Dk_Tc,,-17.45835274754740851,14.7288006300821479,,,0
D_915,Face Baggy Boutique,,-17.45923415380266874,14.72882265863689888,,,0
D_916,Ensup Africa,,-17.4639695813702005,14.72962340197662101,,,0
D_917,Ensup Africa,,-17.46423452279849542,14.72962039199176587,,,0
D_918,Camp Le Leclerc,,-17.4717318855765491,14.73222793603556191,,,0
D_919,Camp Leclerc,,-17.47173083842906394,14.73192950029716464,,,0
D_920,Mouniemoda,,-17.45527428403040915,14.74279616124147907,,,0
D_921,Pharmacie De Patte D'Oie,,-17.44584137533534474,14.74157937245526817,,,0
D_922,Eglise Saint Paul,,-17.44714630949923873,14.73944336582770198,,,0
D_923,Marché Arafat Grand Yoff,,-17.45294460832239025,14.73523765141075437,,,0
D_924,Marché Arafat Grand Yoff,,-17.45321144139530389,14.73523310642831952,,,0
D_925,Blé D'Or,,-17.45584150134899204,14.73303575848783176,,,0
D_926,Sgbs Grand Yoff,,-17.45583365292026912,14.73318163230669242,,,0
D_927,Cms,,-17.45576945210385844,14.73545786864943175,,,0
D_928,Manko,,-17.45595959868627034,14.73516881667140943,,,0
D_929,Sgbs,,-17.43376369255207337,14.73451911149721028,,,0
D_930,Parc Hann EntréE Mariste,,-17.43650908223272467,14.72801405471071234,,,0
D_931,Cappa,,-17.43326380921007512,14.71773820282683509,,,0
D_932,CEM De Hann,,-17.42935712866536946,14.7258883065811812,,,0
D_933,CEM De Hann,,-17.42946335952537851,14.72587660690925837,,,0
D_934,Pharmacie Hann Pêcheurs,,-17.42648620059182463,14.7293080630295723,,,0
D_935,Pharmacie Hann Pêcheurs,,-17.42645557271157841,14.72919341112264213,,,0
D_936,Terrain Tableau Ferraille,,-17.42360171839347771,14.73092677828775798,,,0
D_937,Terrain Tableau Ferraille,,-17.4238107751447231,14.73094101921441457,,,0
D_938,Etablissements Diallo Diop,,-17.40451253968904055,14.73896062387042782,,,0
D_939,Sotiba,,-17.40925728351342272,14.73831212489877984,,,0
D_940,Croisement Pikine,,-17.39640974347214453,14.7427524248116768,,,0
D_941,Dépôt Intra Com,,-17.39924924582453514,14.7406638258613043,,,0
D_942,Sips,,-17.39029580000263309,14.74309772986417855,,,0
D_943,Sips,,-17.39072160656570532,14.74328073008240736,,,0
D_944,CinéMa Thiaroye,,-17.38504588683182561,14.74430174402247751,,,0
D_945,Pharmacie Diamalaye,,-17.3760067856445346,14.74590252115075728,,,0
D_946,Face Pharmacie Diamalaye,,-17.37615464732080994,14.74604800561431617,,,0
D_947,Tableau Tivaoune,,-17.37303538584672324,14.7464892070762108,,,0
D_948,Pharmacie Diamaguene,,-17.35988225975722443,14.7468976887127301,,,0
D_949,Station Shell Diamaguene,,-17.36257132967264027,14.74651194793526798,,,0
D_950,Pharmacie Diamaguene,,-17.35987337500239036,14.74715588572947311,,,0
D_951,Lgi Mbao,,-17.34897664034080123,14.74857148054351264,,,0
D_952,Gendarmerie Fass Mbao,,-17.3453915770656657,14.74880180270443297,,,0
D_953,Gendarmerie Fass Mbao,,-17.3456266112520936,14.74900365040465822,,,0
D_954,Ics En Face Usine Satrec,,-17.34135009975020481,14.74935743362990515,,,0
D_955,Face SéN Eau,,-17.28169449077604725,14.71970833901220388,,,0
D_956,Shell Rufique,,-17.27677238446693053,14.71734859688728037,,,0
D_957,Sonadis,,-17.27395135728169961,14.71591295577096226,,,0
D_958,Jardin Public,,-17.271710819802788,14.71468041828636863,,,0
D_959,Sonatel,,-17.27160833907596071,14.71449325520680418,,,0
D_960,Superette,,-17.26729245090496789,14.71204213538920946,,,0
D_961,Terminus Rufisque P15,,-17.267464015573875,14.71238564064679366,,,0
D_962,Poste Courant,,-17.26316287604972288,14.71019648779403433,,,0
D_963,Poste Courant,,-17.26299607363085187,14.71021037199219705,,,0
D_964,Espi,,-17.25750960504305098,14.70777914514062878,,,0
D_965,Gararage Thiakhane,,-17.25709699294385402,14.70738023526282134,,,0
D_966,Edk,,-17.25212305333087315,14.70508334815797546,,,0
D_967,Sococim,,-17.25347936633210821,14.70591036788245631,,,0
D_968,Centre Commercial,,-17.23358104077219011,14.69599087024609396,,,0
D_969,Face Centre Commercial,,-17.2317003407937257,14.69630072984865343,,,0
D_970,Rte Nationale X Sortie Bargny,,-17.23088338277387166,14.69609158868646404,,,0
D_971,Police De Bargny,,-17.23000973925813994,14.69460885013960194,,,0
D_972,Maison Des Jeunes De Bargny,,-17.22875289465505588,14.69162184459248266,,,0
D_973,Maison Des Jeunes De Bargny,,-17.22889873147597939,14.69192308904490929,,,0
D_974,Terminus Bargny,,-17.22721795971636993,14.69044353210847831,,,0
D_975,Ndoukhoura Wolof En Face DéPôT De Ciment,,-17.16726588980608881,14.68113920596779742,,,0
D_976,Touba Ngayame,,-17.17014931396353816,14.6587610582427974,,,0
D_977,Todd-Route De Yenne,,-17.18264684143683141,14.64882737510503929,,,0
D_978,Boulangerie Keur Ndiaye Lô,,-17.24290758231947862,14.74487256975247185,,,0
D_979,Complexe Horizon Cité Dabakh,,-17.23677530495292842,14.75338278333550157,,,0
D_980,Star éNergie,,-17.23068305640691023,14.76239623447793647,,,0
D_981,Ecole PrivéE Alimatou Sadiya,,-17.19004415128162222,14.79845165491904702,,,0
D_982,Mairie De Bambilor,,-17.18776604929865925,14.80030972097669562,,,0
D_983,Boutique Free Route Bambilor,,-17.18497651558633876,14.80247349621738095,,,0
D_984,Brigade De Proximité De Bambilor,,-17.17750782877726223,14.80679225505304153,,,0
D_985,Quincaillerie Wa Serigne Saliou,,-17.24716860840860377,14.77563659043350341,,,0
D_986,Pharmacie Petit Ouzin,,-17.27383057054935733,14.78547690424609939,,,0
D_987,Keur Massar Village,,-17.30893056944247377,14.78546688147815757,,,0
D_988,Keur Massar Village,,-17.30909903751565082,14.78527064592462281,,,0
D_989,Terminus Keur Massar,,-17.30922603288158257,14.78545049756456287,,,0
D_990,Quincaillerie Sope Serigne Saliou,,-17.30365125107242363,14.78516601588385981,,,0
D_991,Quincaillerie Sope Serigne Saliou,,-17.30356284816850021,14.7850326054227672,,,0
D_992,Pharmacie Cheikh Ibrahima Diallo,,-17.47225875779792759,14.75551064124184641,,,0
D_993,Arrêt Layenne En Face Prêt à  Porter Khadim,,-17.47013334488499936,14.75592818385228888,,,0
D_994,Centre De Developpent Communautaire,,-17.46715389483506087,14.75581105822772976,,,0
D_995,Centre De Developpent Communautaire,,-17.46719006407293762,14.75588428998597124,,,0
D_996,Marathon Yoff Apecsy,,-17.46569186446960842,14.75847982441639594,,,0
D_997,Cbao,,-17.4629351409586846,14.75966440763531651,,,0
D_998,Centre AéRé Bcao Yoff,,-17.46140974515254385,14.75972247770752155,,,0
D_999,Terminus Diamalaye,,-17.45271114353713315,14.75964148495352646,,,0
D_1000,Croisement Brioche D'OréE,,-17.45105881514071555,14.75896372011068003,,,0
D_1001,Ecole Dior,,-17.44699317428536034,14.75912984554424945,,,0
D_1002,Pa U 20,,-17.44449315183011251,14.75953368099184182,,,0
D_1003,Pa U 20,,-17.44363140348608354,14.75981432683800421,,,0
D_1004,MéRe Sam Sam,,-17.4407282565431494,14.76037567491654912,,,0
D_1005,Biscs,,-17.4412144503296922,14.76019460174841669,,,0
D_1006,Terminus Pa,,-17.43947571788006812,14.7605746788989638,,,0
D_1007,Pamecas Pa,,-17.43742139625640064,14.76107019548254407,,,0
D_1008,Pa U 8,,-17.43569045618750835,14.75570861656167487,,,0
D_1009,Pa U8,,-17.43576787045939724,14.75567558199130325,,,0
D_1010,Stade Municipal,,-17.43698644506845241,14.75746639132625937,,,0
D_1011,Clinique Ya-Sin,,-17.43917334509887951,14.75692450653710885,,,0
D_1012,Parcelle Unité 19 Cktd,,-17.44709409384664767,14.76280611905070472,,,0
D_1013,Face Pharmacie Mariama Parcelle Unité 16,,-17.44371189514112785,14.76340789602356729,,,0
D_1014,Dispensaire Norade,,-17.44626638403186547,14.7555948810808637,,,0
D_1015,Face Pret à  Porter Adja,,-17.44576323478969826,14.75558290066259737,,,0
D_1016,Keur Dianké Sarr,,-17.44380156152485384,14.75608266841989114,,,0
D_1017,Cordon Bleu,,-17.43690440157415011,14.76134492092606187,,,0
D_1018,Station Mobile Grand MéDine,,-17.44540569743590552,14.74694833731518528,,,0
D_1019,Mosquée Patte D'Oie Builders,,-17.44557699887995028,14.74626828098560161,,,0
D_1020,Tally Bou Bes Pa,,-17.44384074616174729,14.74850281556142662,,,0
D_1021,Tally Bou Bes Pa,,-17.44398755462868422,14.74849454409872429,,,0
D_1022,Police Pa,,-17.44102690255408206,14.75035695213786369,,,0
D_1023,Ecole Soprime,,-17.43624025816596301,14.75224285649457201,,,0
D_1024,Pharmacie Mame Diarra Bousso,,-17.43661842737770939,14.75185878558341379,,,0
D_1025,Touba Vip,,-17.43373242174752136,14.75375091016431206,,,0
D_1026,Case Bi,,-17.43299673292170837,14.75406555084224713,,,0
D_1027,Case Bi,,-17.42992837982575338,14.75608195014260637,,,0
D_1028,Case Bi,,-17.42990571468049055,14.75597524178282427,,,0
D_1029,Keur Serigne Ablaye CambéRene 1,,-17.43002836445177905,14.76737442945869816,,,0
D_1030,Brioche D'OréE Cite Fadia,,-17.42798107518952833,14.75800014025232798,,,0
D_1031,Brioche D'OréE Cite Fadia,,-17.42783755763841924,14.75807348477365544,,,0
D_1032,LycéE Parcelles Assainies,,-17.42447907103116833,14.76244292504639688,,,0
D_1033,Westerne Cbao Parcelles Unité 6,,-17.42452338831174075,14.76262232342244651,,,0
D_1034,Pharmacie Golf,,-17.42127697913972995,14.76406122422715228,,,0
D_1035,Pharmacie Golf,,-17.42135714792807022,14.76413436236297194,,,0
D_1036,Restaurant Fast Food Hamo,,-17.41698916110336981,14.76534370570180954,,,0
D_1037,Centre De Formation Cpi Hamo,,-17.41738158830147754,14.76533396898863515,,,0
D_1038,Hamo Terrain De Golf,,-17.41174914078242608,14.76865141266718418,,,0
D_1039,Pamecas,,-17.40510475207590702,14.77175439465364093,,,0
D_1040,Pamecas,,-17.40483380198260477,14.77162608803430466,,,0
D_1041,Permanence Pai,,-17.40390189339485971,14.77269087160776806,,,0
D_1042,Permanence Pai,,-17.40385372093783189,14.77255408987851304,,,0
D_1043,Cité Des Enseignants,,-17.40343362836154739,14.77474332643810762,,,0
D_1044,Cité Des Enseignants,,-17.4027444460858618,14.77531147028708425,,,0
D_1045,Groupe Scolaire Les Filaos,,-17.40106267568178922,14.77562976339776846,,,0
D_1046,Arrêt Double Less,,-17.39633483090887722,14.7765334348455557,,,0
D_1047,Dial Mbaye,,-17.39416283566458077,14.77653704137734891,,,0
D_1048,Darou Khoudoss CréAtion,,-17.39138510581285857,14.77491121955799791,,,0
D_1049,Face Darou Khoudoss CréAtion,,-17.39092765109978345,14.77489452686970139,,,0
D_1050,Station De Guédiawayee,,-17.38881954120555307,14.77341782510406709,,,0
D_1051,Grande Mosquée De GuéDiawaye,,-17.38759966822431835,14.77256274662475377,,,0
D_1052,Pharmacie Golf,,-17.41421595478174211,14.76688104358160025,,,0
D_1053,Pharmacie Golf,,-17.41433876506954803,14.76692811137334616,,,0
D_1054,Groupe Scolaire Mamadou Diop,,-17.39563329090024268,14.7579897312948507,,,0
D_1055,Pamecas,,-17.39328359342108143,14.76098737005936457,,,0
D_1056,Terminus Daroukhane,,-17.37202839308534763,14.78147435420705413,,,0
D_1057,Ecole Daroukhane,,-17.3756210132784048,14.78550124654468334,,,0
D_1058,Terrain Asc Juboo,,-17.3761132032205694,14.78569825081601863,,,0
D_1059,Cours PrivéS RéVolution,,-17.37844514317511724,14.78444145851305613,,,0
D_1060,Cours PrivéS RéVolution,,-17.37857846039808862,14.78445442490685835,,,0
D_1061,Toufa CréAtion,,-17.382155158545185,14.78223896840287921,,,0
D_1062,Toufa CréAtion,,-17.38225742690202935,14.78224761959082834,,,0
D_1063,Mairie Hamos 5,,-17.38755032077946439,14.78152669641281847,,,0
D_1064,Malibou,,-17.40812949231849416,14.77529705201288124,,,0
D_1065,Malibou,,-17.40820808724013702,14.77511370234199184,,,0
D_1066,ColléGe Cité Enseignants,,-17.40432068119984166,14.77520368539906848,,,0
D_1067,ColléGe Cité Enseignants,,-17.40447298054431968,14.77537363461065212,,,0
D_1068,Pharmacie Nguyen,,-17.40865732343201699,14.77447277674236403,,,0
D_1069,Pharmacie Nguyen,,-17.40877341311053428,14.77429006496267405,,,0
D_1070,Dalal Jamm,,-17.408836724024642,14.77055958097014354,,,0
D_1071,Dalal Jamm,,-17.40885851912582538,14.77039591140596819,,,0
D_1072,Ecole 13,,-17.3989882366508688,14.77520351295106948,,,0
D_1073,Ecole 13,,-17.39904155835383293,14.77513540209289111,,,0
D_1074,Terrain Manko,,-17.39547438111433664,14.77440803604216946,,,0
D_1075,Marché Sahm,,-17.39536589355502727,14.77433299203209316,,,0
D_1076,Tally Centre De Sauvegarde,,-17.39813592071403647,14.77325337258264959,,,0
D_1077,Tally Centre De Sauvegarde,,-17.3979904927442881,14.77333564773298846,,,0
D_1078,Pharmacie Serigne Abibou Dramé,,-17.39262267614236279,14.77420901498262573,,,0
D_1079,Pharmacie Serigne Abibou Dramé,,-17.39265543558338223,14.77411720883685931,,,0
D_1080,Stade Amadou Barry,,-17.39046446839097015,14.77227168085826392,,,0
D_1081,Stade Amadou Barry,,-17.39072304419712012,14.77242528956286982,,,0
D_1082,Terminus Guédiawayee,,-17.38919905521609621,14.77268649994417871,,,0
D_1083,Parc Des Laobé,,-17.38932132376299577,14.7731173894829535,,,0
D_1084,Parc Des Laobé,,-17.38930818892703556,14.77299043966654679,,,0
D_1085,Terrain Disso,,-17.37337354476002815,14.77821041698419613,,,0
D_1086,Terrain Disso,,-17.37351404208730088,14.7782903215612631,,,0
D_1087,En Face Du District Sanitaire De De G,,-17.37239532708623813,14.78565897204437896,,,0
D_1088,A CôTé De L'éCole AcadéMie Bilingue Ch,,-17.37195880860740971,14.78583799994438941,,,0
D_1089,Groupe Scolaire Dabakh,,-17.37121941436685191,14.78590468547789527,,,0
D_1090,Face Paradise Couture,,-17.36914788419691646,14.78644702875706685,,,0
D_1091,Tapisserie Plus,,-17.36885528481048979,14.78641547570182979,,,0
D_1092,Anour Trado,,-17.36731327474807429,14.78670333750916832,,,0
D_1093,Anour Trado,,-17.36726248861703326,14.78687588458648783,,,0
D_1094,Terminus 30,,-17.36570529461522838,14.78717606465181511,,,0
D_1095,Terminus 30,,-17.36573230639518428,14.78746061777493459,,,0
D_1096,Terminus Gadaye,,-17.36346407333354236,14.79107083143424362,,,0
D_1097,Sortie Wakhinane,,-17.3771469926760993,14.78818813866378079,,,0
D_1098,Sortie Wakhinane,,-17.3769994287098406,14.78826407711227731,,,0
D_1099,Wakhinane Vdn,,-17.37755974235099998,14.79081785377344005,,,0
D_1100,Wakhinane,,-17.37781104556846756,14.79101425081329602,,,0
D_1101,Daral Thiarroye,,-17.37796018300115364,14.75179381919097388,,,0
D_1102,Daral Thiarroye,,-17.37834868678207201,14.75185389950855352,,,0
D_1103,Marché Thiaroye,,-17.38036197811258887,14.75595958736604985,,,0
D_1104,Marché Thiaroye,,-17.3801784606789731,14.7560052848104295,,,0
D_1105,Gare Ter,,-17.37964681078631557,14.76071528789536025,,,0
D_1106,Gare TER,,-17.37981920293075078,14.76075368117132491,,,0
D_1107,Tally Djiallo En Face Marche Thiar,,-17.37770867174801381,14.76184378606417802,,,0
D_1108,Tally Diallo Devant Djiouma Thiaroye,,-17.37704746783363063,14.76199872317676132,,,0
D_1109,Pharmacie Tally Diallo,,-17.37254423831658556,14.76449856296827789,,,0
D_1110,Pharmacie Tally Diallo,,-17.37250985450996055,14.7643732116357107,,,0
D_1111,Mairie Yeumbel Sud,,-17.36759822512473761,14.76683847390352256,,,0
D_1112,Mairie Yeumbel Sud,,-17.36776062492036488,14.7668318059129664,,,0
D_1113,Ecobank Yeumbeul,,-17.36451833486358609,14.76985659815956353,,,0
D_1114,Ecobank Yeumbeul,,-17.36440122422074595,14.76975146017463736,,,0
D_1115,Pharmacie Ndeye Ngatou Ba,,-17.36104523183933068,14.77309989550929359,,,0
D_1116,Pharmacie Ndeye Ngatou Ba,,-17.36102965706761125,14.77327203111213372,,,0
D_1117,Pharmacie Cheikh Ahmadou Bamba,,-17.3579477810023306,14.77811962511015587,,,0
D_1118,Pharmacie Cheikh Ahmadou Bamba,,-17.35802143323563129,14.77818027113031008,,,0
D_1119,Boutique Point Orange.,,-17.35285648160351357,14.78317292650694093,,,0
D_1120,Boutique Point Orange.,,-17.35263757875556578,14.78325983639228802,,,0
D_1121,Boutique Ganiavet,,-17.34411780010904636,14.78863344528096491,,,0
D_1122,Boutique Ganiavet,,-17.34422854033292083,14.78873123365016262,,,0
D_1123,Ecole PrivéE Franco-Arabe Nouroul Houda.,,-17.34174568063508204,14.79057358183696635,,,0
D_1124,Ecole PrivéE Franco-Arabe Nouroul Houda.,,-17.34165664825481912,14.79053714405850251,,,0
D_1125,Dispensaire Malika,,-17.3398201214345562,14.79194189175682261,,,0
D_1126,Dispensaire Malika,,-17.33993803826892588,14.79196036812221138,,,0
D_1127,Terminus Malika,,-17.33613178258158527,14.79355981696283528,,,0
D_1128,terminus Malika,,-17.33643988276705983,14.79362413685526967,,,0
D_1129,Terminus Malika,,-17.33616931797307714,14.79361145233266051,,,0
D_1130,Mairie Malika,,-17.33710732104080421,14.79865749347405135,,,0
D_1131,Mairie Malika,,-17.33696237739668433,14.79893768834934598,,,0
D_1132,Malika Plage,,-17.33784181959583748,14.80157954377995466,,,0
D_1133,Malika Plage,,-17.33802311387103146,14.80171389952126226,,,0
D_1134,Malika Plage Terminus 50,,-17.33881787190657775,14.80490284781527421,,,0
D_1135,Malika Plage Terminus 50,,-17.33868073384379471,14.80478583115945845,,,0
D_1136,Malika Plage Vdn,,-17.33937991343504592,14.80596034710627329,,,0
D_1137,Malika Mbarou Ndeye Ngom,,-17.33215251724370631,14.79361174914161481,,,0
D_1138,Malika Mbarou Ndeye Ngom,,-17.33190464212273341,14.79366899835192228,,,0
D_1139,Malika Montagne PrèS De Mbeubeuss,,-17.32758356606159467,14.79139566793993943,,,0
D_1140,Malika Montagne PrèS De Mbeubeuss,,-17.32790382755997172,14.79135474352896473,,,0
D_1141,Station Mtoa,,-17.32324191032707006,14.78289703232663399,,,0
D_1142,Station Mtoa,,-17.32354926009819351,14.78315429229678202,,,0
D_1143,Centre De Santé Keur Massar,,-17.32125527633511552,14.77861385764730962,,,0
D_1144,Centre De Santé Keur Massar,,-17.32149281099727389,14.77859314026190418,,,0
D_1145,Ecobank Keur Massar,,-17.31916084682322321,14.77606619816489619,,,0
D_1146,Ecobank Keur Massar,,-17.31932760749104361,14.77585583941265845,,,0
D_1147,PéNitence Keur Massar,,-17.30016295603159193,14.7604480930817612,,,0
D_1148,Jaxay Devant Canadakar Le Grand Bazar Canadien,,-17.29700412699044065,14.75905163461644065,,,0
D_1149,Gouygui,,-17.31504485427396034,14.73536986236489632,,,0
D_1150,Gouygui,,-17.31490370344899787,14.73537492758756429,,,0
D_1151,Mabo Couture,,-17.36016186232978953,14.77229904111228365,,,0
D_1152,Mabo Couture,,-17.36006347211150569,14.77237574400618314,,,0
D_1153,Senegal Couture.,,-17.35433673922036846,14.77055465806275159,,,0
D_1154,Senegal Couture.,,-17.3542512180070112,14.77041137977651708,,,0
D_1155,CréDit Mutuel Du Senegal.,,-17.34918852929541799,14.76879270222866758,,,0
D_1156,CréDit Mutuel Du Senegal.,,-17.349013956714888,14.76885615924743966,,,0
D_1157,Borom Darou,,-17.34036916370791204,14.76608754236683652,,,0
D_1158,Borom Darou,,-17.34027273398270452,14.7659093267201591,,,0
D_1159,Marché Bara Gaye En Face Boutique Al Amine,,-17.34427968002730935,14.76644557824156934,,,0
D_1160,Boune Tally Bou Bess En Face Les DéLices De Mbao,,-17.34461285325294,14.7661064401542248,,,0
D_1161,Tally Mame Diarra,,-17.34621781746835012,14.76142953657527279,,,0
D_1162,Tally Mame Diarra,,-17.34612854615816246,14.76148320619534715,,,0
D_1163,Boulangerie Pâtisserie Touba Khelcom,,-17.34465665423973846,14.76746890221343556,,,0
D_1164,Boulangerie Pâtisserie Touba Khelcom,,-17.34475731350446281,14.76740599407903964,,,0
D_1165,Dépôt Gaz Devant FayéNe Services,,-17.33247301124682593,14.76855368257443679,,,0
D_1166,Dépôt Gaz Devant FayéNe Services,,-17.33261123952765459,14.76861979428961291,,,0
D_1167,Unité 14 Pres De Tableau Baye,,-17.32865214600448667,14.77078126865909091,,,0
D_1168,Unité 14 Pres De Tableau Baye,,-17.32845309652147847,14.77092087922395081,,,0
D_1169,Keur Massar Unité11 En Face A,,-17.32452816845916743,14.77694197089279271,,,0
D_1170,Keur Massar Unité11 En Face A,,-17.32479441272900544,14.77687606825656452,,,0
D_1171,OpéRa Voyage,,-17.34538823652432882,14.75600065283848394,,,0
D_1172,Face Pharmacie Lgi Mbao,,-17.34550184707294918,14.75528918545574442,,,0
D_1173,Arrêt Gnarri Baye Fall,,-17.28794432560102834,14.76765376791998463,,,0
D_1174,Arrêt Gnarri Baye Fall,,-17.28774370329159993,14.76761638875697003,,,0
D_1175,Poissonnerie Charcuterie Alimentation Generale Mme Balde,,-17.29055787032909919,14.76324453652090973,,,0
D_1176,Poissonnerie Charcuterie Alimentation Generale Mme Balde,,-17.29039009056343801,14.76312017424566392,,,0
D_1177,Boucherie Rockaya & Moussa,,-17.29210074858287527,14.7601329554236127,,,0
D_1178,Boucherie Rockaya & Moussa,,-17.29222047516906713,14.76015882299617488,,,0
D_1179,Quincaillerie Q.M.A,,-17.28514591127038713,14.77210750191257915,,,0
D_1180,Quincaillerie Q.M.A,,-17.28531177271614894,14.77220809030724169,,,0
D_1181,Terminus La LinguèRe,,-17.28231372075849137,14.77665210360252956,,,0
D_1182,Malika Plage Vdn,,-17.34403879820223437,14.80435273534152607,,,0
D_1183,Malika Plage Vdn,,-17.34352304474107598,14.80420683110936153,,,0
D_1184,Gadaye,,-17.36893236209891356,14.79445994535162789,,,0
D_1185,Gadaye,,-17.36821965503531473,14.79424229835850646,,,0
D_1186,Parking Sococim,,-17.25385284410504738,14.71023261857650866,,,0
D_1187,Parking Sococim,,-17.25385486126898016,14.71007536804611782,,,0
D_1188,Sococim,,-17.24904774996780432,14.7098584745166967,,,0
D_1189,Sococim,,-17.24907207675174448,14.70967949834980004,,,0
D_1190,Eglise Notre Dame Des Pauvres De Sangalkam,,-17.22492295071780077,14.77789987215419032,,,0
D_1191,Eglise Notre Dame Des Pauvres De Sangalkam,,-17.22497251116442385,14.77795924276317585,,,0
D_1192,Pharmacie Actue,,-17.46079770501788531,14.69295072160840299,,,0
D_1193,Keur Serigne Fallou Tissus,,-17.44879570628522458,14.74176447832074821,,,0
D_1194,Pharmacie Sedami,,-17.46999086932149581,14.7056153323613561,,,0
D_1195,Pharmacie Atlantique,,-17.49937023183957763,14.72963378074921081,,,0
D_1196,Garderie Les Mamelles,,-17.49844670136602787,14.73159233096068554,,,0
D_1197,Garderie Les Mamelles,,-17.49860644717766434,14.73152077814921768,,,0
D_1198,Pharmacie Atlantique,,-17.49941516034909128,14.72982680693826474,,,0
D_1199,Cité AssembléE X Rue 61,,-17.49473926732083839,14.73066880048711269,,,0
D_1200,Cité AssembléE Rue 55,,-17.49511866362349011,14.73163309942300891,,,0
D_1201,Bethel Academy,,-17.49686837946662621,14.73142010500748889,,,0
D_1202,HôPital Des Enfants De Diamniadio,,-17.16423322579285582,14.72839750717332308,,,0
D_1203,HôPital Des Enfants De Diamniadio,,-17.16451130183534346,14.72796856008650757,,,0
D_1204,Usine Fer,,-17.15514546406393137,14.73367503546904445,,,0
D_1205,Usine Fer,,-17.15487330453298398,14.73361587035362064,,,0
D_1206,Gnari Potto,,-17.14776757417070385,14.7363374656630679,,,0
D_1207,Gnari Potto,,-17.14766107696294384,14.7365208775208778,,,0
D_1208,Pharmacie Sebikotane,,-17.1432651088870287,14.73838162040092037,,,0
D_1209,Pharmacie Sebikotane,,-17.14320150638794971,14.73859017743278876,,,0
D_1210,Terminus SéBikhotane,,-17.13546714667431203,14.74415120523991263,,,0
D_1211,Aibd,,-17.05194819061560096,14.65499973019297641,,,0
D_1212,Stade Annexe De Diamniadio,,-17.20756279807275391,14.73612397820494202,,,0
D_1213,Stade Annexe De Diamniadio,,-17.20793553829991751,14.73636359692240383,,,0
D_1214,Complexe Diplomatique De Diamniadio,,-17.20233556012514953,14.74699556816388046,,,0
D_1215,Complexe Diplomatique De Diamniadio,,-17.20200275635089682,14.74719968781209012,,,0
D_1216,Terminus Diamniadio,,-17.18885035119240712,14.74293979950164868,,,0
D_1217,Touba Douyoli,,-17.44225108924985435,14.70491339373417361,,,0
D_1218,Centre De Santé Des Hlm,,-17.44197202712211947,14.70885280433607178,,,0
D_1219,Terrain Hlm X Rue 172,,-17.44183101693036164,14.71106853790865898,,,0
D_1220,Rocade Fann Bel Air,,-17.43141565575036012,14.69779977468985344,,,0
D_1221,Rocade Fann Bel Air,,-17.43113166319632867,14.69806273075840153,,,0
D_1222,Route Des Hydrocarbures,,-17.42838640184071863,14.70289060417690052,,,0
D_1223,Route Des Hydrocarbures,,-17.42839823486380268,14.70319826277709829,,,0
D_1224,Zac Mbao,,-17.30309033468030577,14.73111094532107224,,,0
D_1225,Petite Porte Ucad,,-17.46090170835060462,14.68533394845631257,,,0
D_1226,Mosquée Nation Unies,,-17.41906860375793542,14.7733103142927007,,,0
D_1227,Terminus Canberene 2,,-17.41858725101198502,14.77448954921492152,,,0
D_1228,Pharmacie Keur Djimi,,-17.44986186143827922,14.69194975743728371,,,0
D_1229,AéRoport LéOpold SéDar Senghor,,-17.48936132530617371,14.74591199805497688,,,0
D_1230,Stade De Ouakam,,-17.49028027145752517,14.7291129093632982,,,0
D_1231,Cash Point Services Cité AssembléE AssembléE,,-17.49359646843848282,14.7308738384733271,,,0
D_1232,Quartier Protet,,-17.43722302234212762,14.68357590388212586,,,0
D_1233,Orabank,,-17.43744752678489718,14.68840149118529759,,,0
D_1234,Gare De Rufisque,,-17.28277347861427415,14.72137900524232457,,,0
D_1235,Terrain Hlm Rufisque,,-17.28489675792051017,14.73042486730343903,,,0
D_1236,Terrain Hlm Rufisque,,-17.28510984688313812,14.73073399509334003,,,0
D_1237,Rufisac,,-17.30349638023025705,14.72858481186208657,,,0
D_1238,Mosquée Keur Mbaye Fall,,-17.31524671445539454,14.74411807174255351,,,0
D_1239,Aéroport Léopold Sédar Senghor,,-17.49030310241777642,14.74780526425196392,,,0
D_1240,Cité Fayà§Al,,-17.42223449691696757,14.74540050057190399,,,0
D_1241,Groupe Scolaire Diamane Senghor,,-17.38527683725271444,14.77996231644968184,,,0
D_1242,Groupe Scolaire Diamane Senghor,,-17.38513768595278108,14.7797794702400207,,,0
D_1243,Casino Du Cap Vert,,-17.50231579142959148,14.7511830601488434,,,0
D_1244,Tfc Mc Ceasar'S,,-17.50764100463845097,14.74819414466260348,,,0
D_1245,Ecobank,,-17.50658844993386509,14.74902397177967117,,,0
D_1246,Castor,,-17.26243277628138983,14.71367200179409807,,,0
D_1247,Castor,,-17.26256300762619489,14.71384972708005812,,,0
D_1248,Colobane Nord,,-17.25955341476747051,14.712193252782237,,,0
D_1249,Colobane Nord,,-17.25943210337779021,14.71206556569974921,,,0
D_1250,Carriere Sococim,,-17.24255554828376447,14.71031935107416366,,,0
D_1251,Carriere Sococim,,-17.24266258774524729,14.71069896413791511,,,0
D_1252,Pharmacie Abdourahmane,,-17.4244191613277124,14.738143237926419,,,0
D_1253,Al Barka,,-17.42124633329022387,14.73616776592753297,,,0
D_1254,Gare Des Baux MaraichéRs,,-17.40298183317895919,14.74141782365936315,,,0
D_1255,Fks,,-17.3066093000293364,14.73458651276799181,,,0
D_1256,Fks,,-17.30714449733675764,14.73481770598123219,,,0
D_1257,Relax Voyages,,-17.47144650273321531,14.75567153186967317,,,0
D_1258,Ecole 6 Ouakam,,-17.48520374952050815,14.72745477177689111,,,0
D_1259,Sham,,-17.45339518954944324,14.68473881215789589,,,0
D_1260,Case Ba,,-17.42907403990918169,14.75682738352429801,,,0
D_1261,Rond-Point Liberte 6,,-17.45754653666400458,14.72865045674553208,,,0
D_1262,Rond-Point Liberte 6,,-17.45707556303347374,14.728350242088732,,,0
D_1263,Mamelles,,-17.50081010300495521,14.72669215254152242,,,0
D_1264,Terminus 121,,-17.45560064353387375,14.74464168051399504,,,0
D_1265,Bayakh,,-17.13695050687481469,14.83010957051061141,,,0
D_1266,Lat-Dior,,-17.44155040432483617,14.66881120998178822,,,0
D_1267,Gare Ter De Diamniadio,,-17.20127826423528461,14.71784562391778906,,,0
D_1268,Direction De La Construction Et De L'Urbanisme,,-17.2051249165794502,14.72604160852290001,,,0
D_1269,Direction De La Construction Et De L'Urbanisme,,-17.20550758415419068,14.72630031336216305,,,0
D_1270,Complexe Diplomatique 2,,-17.19968403042874883,14.74274962939181854,,,0
D_1271,Complexe Diplomatique 2,,-17.20012867937122891,14.74291670960050915,,,0
D_1272,Institut De Recherche En Santé,,-17.20950403495235292,14.74602386251371122,,,0
D_1273,Gare Ter Hlm,,-17.44248861694332575,14.70129263305661382,,,0
D_1274,Petersen,,-17.44145809936518532,14.6757469482421623,,,0
D_1275,Port De Dakar,,-17.4321776733397833,14.67437805175778465,,,0
D_1276,Poste De Santé Jaxaay,,-17.28124100561595,14.76991491857777383,,,0
D_2000,Tivaouane Peulh,,-17.28741302490229614,14.81947146606442445,,,0
